[{"address":"24276 TAMARISK AV BORON, CA","kw":3.9,"permitId":"KERNCO-16CAP-00000-000N0","geoLocation":{"lat":35.00401,"lng":-117.698888}},{"address":"11507 LINDALEE LN BAKERSFIELD, CA","kw":10.7,"permitId":"KERNCO-16CAP-00000-000O9","geoLocation":{"lat":35.378666,"lng":-119.131318}},{"address":"50 STERLING RD BAKERSFIELD, CA","kw":5.7,"permitId":"KERNCO-16CAP-00000-000M4","geoLocation":{"lat":35.358005,"lng":-118.940584}},{"address":"710 NORMANDY DR BAKERSFIELD, CA","kw":6.9,"permitId":"KERNCO-16CAP-00000-000KP","geoLocation":{"lat":35.369312,"lng":-118.940078}},{"address":"5320 MONTEREY ST BAKERSFIELD, CA","kw":3.975,"permitId":"KERNCO-16CAP-00000-000KR","geoLocation":{"lat":35.3755519,"lng":-118.9240568}},{"address":"113 SUNNY MEADOW DR BAKERSFIELD, CA","kw":2.65,"permitId":"KERNCO-16CAP-00000-000KS","geoLocation":{"lat":35.43551,"lng":-119.022179}},{"address":"3013 VERDUGO LN BAKERSFIELD, CA","kw":12.19,"permitId":"KERNCO-16CAP-00000-000KT","geoLocation":{"lat":35.387531,"lng":-119.1192875}},{"address":"3527 AYRES CT BAKERSFIELD, CA","kw":6.89,"permitId":"KERNCO-16CAP-00000-000KU","geoLocation":{"lat":35.384932,"lng":-118.947507}},{"address":"3718 PARK MOUNTAIN CT BAKERSFIELD, CA","kw":10.4,"permitId":"KERNCO-16CAP-00000-000LW","geoLocation":{"lat":35.440098,"lng":-119.026811}},{"address":"3429 GEMSTONE AV ROSAMOND, CA","kw":5,"permitId":"KERNCO-16CAP-00000-000KW","geoLocation":{"lat":34.853958,"lng":-118.1929069}},{"address":"4601 KNOLL DR BAKERSFIELD, CA","kw":5.1,"permitId":"KERNCO-16CAP-00000-000N4","geoLocation":{"lat":35.4434534,"lng":-119.0280394}},{"address":"14004 FREMANTLE CT BAKERSFIELD, CA","kw":9.1,"permitId":"KERNCO-16CAP-00000-000O1","geoLocation":{"lat":35.370619,"lng":-119.158179}},{"address":"319 BUCHANAN ST TAFT, CA","kw":8,"permitId":"KERNCO-16CAP-00000-000MT","geoLocation":{"lat":35.15587,"lng":-119.464286}},{"address":"7504 SEGRUE RD LAMONT, CA","kw":3.8,"permitId":"KERNCO-16CAP-00000-000N2","geoLocation":{"lat":35.256301,"lng":-118.92084}},{"address":"2332 PICTORIA DR BAKERSFIELD, CA","kw":4.2,"permitId":"KERNCO-16CAP-00000-000LX","geoLocation":{"lat":35.379515,"lng":-118.932802}},{"address":"6200 DENA CT BAKERSFIELD, CA","kw":7.75,"permitId":"KERNCO-16CAP-00000-000L8","geoLocation":{"lat":35.413475,"lng":-119.071048}},{"address":"7200 CRANBROOK AV BAKERSFIELD, CA","kw":7.2,"permitId":"KERNCO-16CAP-00000-000JU","geoLocation":{"lat":35.422436,"lng":-119.082263}},{"address":"8008 PEMBROKE AV BAKERSFIELD, CA","kw":11.4,"permitId":"KERNCO-16CAP-00000-000K2","geoLocation":{"lat":35.4116209,"lng":-119.091899}},{"address":"7108 ANGELA AV BAKERSFIELD, CA","kw":9.7,"permitId":"KERNCO-16CAP-00000-000JS","geoLocation":{"lat":35.415389,"lng":-119.08207}},{"address":"14813 FLOWER CREST AV BAKERSFIELD, CA","kw":6.82,"permitId":"KERNCO-16CAP-00000-000IH","geoLocation":{"lat":35.372029,"lng":-119.167497}},{"address":"749 SUNSET MEADOW LN BAKERSFIELD, CA","kw":3.6,"permitId":"KERNCO-16CAP-00000-000IW"},{"address":"916 ELIZABETH CT BAKERSFIELD, CA","kw":7.2,"permitId":"KERNCO-16CAP-00000-000IV","geoLocation":{"lat":35.434635,"lng":-119.011357}},{"address":"13700 WESTDALE DR BAKERSFIELD, CA","kw":6.7,"permitId":"KERNCO-16CAP-00000-000JT","geoLocation":{"lat":35.379574,"lng":-119.154709}},{"address":"10665 ODYSSY WY TAFT, CA","kw":6.1,"permitId":"KERNCO-16CAP-00000-000IZ","geoLocation":{"lat":35.237879,"lng":-119.318982}},{"address":"2168 GATEWAY  RIDGECREST, CA","kw":7.6,"permitId":"KERNCO-16CAP-00000-000JJ","geoLocation":{"lat":35.584377,"lng":-117.651826}},{"address":"126 SPARKS ST BAKERSFIELD, CA","kw":3.7,"permitId":"KERNCO-16CAP-00000-000L9","geoLocation":{"lat":35.306599,"lng":-118.993912}},{"address":"14640 PAMS WY BAKERSFIELD, CA","kw":10,"permitId":"KERNCO-16CAP-00000-000JQ","geoLocation":{"lat":35.4087055,"lng":-119.1652261}},{"address":"9454 GARRIN RD BAKERSFIELD, CA","kw":9.52,"permitId":"KERNCO-16CAP-00000-000I2","geoLocation":{"lat":35.227442,"lng":-119.107378}},{"address":"1223 BALDWIN RD BAKERSFIELD, CA","kw":10.6,"permitId":"KERNCO-16CAP-00000-000K7","geoLocation":{"lat":35.3418149,"lng":-119.029566}},{"address":"2108 AUTUMN ST BAKERSFIELD, CA","kw":2.6,"permitId":"KERNCO-16CAP-00000-000J0"},{"address":"814 FILLMORE ST TAFT, CA","kw":16.64,"permitId":"KERNCO-16CAP-00000-000H3","geoLocation":{"lat":35.163832,"lng":-119.461082}},{"address":"7041 MEANY AV BAKERSFIELD, CA","kw":6.3,"permitId":"KERNCO-16CAP-00000-000HQ"},{"address":"11330 SNOW RD BAKERSFIELD, CA","kw":7.21,"permitId":"KERNCO-16CAP-00000-000J2","geoLocation":{"lat":35.4284589,"lng":-119.128363}},{"address":"2201 60TH  ROSAMOND, CA","kw":4.5,"permitId":"KERNCO-16CAP-00000-000FO","geoLocation":{"lat":34.8532015,"lng":-118.2379462}},{"address":"2408 CORTO ST BAKERSFIELD, CA","kw":4.6,"permitId":"KERNCO-16CAP-00000-000FW","geoLocation":{"lat":35.384269,"lng":-118.964445}},{"address":"7901 OLIVE DR BAKERSFIELD, CA","kw":5.61,"permitId":"KERNCO-16CAP-00000-000EC","geoLocation":{"lat":35.412085,"lng":-119.090133}},{"address":"1515 DRUMMOND  RIDGECREST, CA","kw":4.08,"permitId":"KERNCO-16CAP-00000-000ES","geoLocation":{"lat":35.63662,"lng":-117.70164}},{"address":"2920 COLLEGE AV BAKERSFIELD, CA","kw":10.335,"permitId":"KERNCO-16CAP-00000-000F3","geoLocation":{"lat":35.38345,"lng":-118.951841}},{"address":"3324 SUSAN CT ROSAMOND, CA","kw":5.28,"permitId":"KERNCO-16CAP-00000-000EG","geoLocation":{"lat":34.868916,"lng":-118.180786}},{"address":"2200 ROSE MARIE DR BAKERSFIELD, CA","kw":4.606,"permitId":"KERNCO-16CAP-00000-000F4","geoLocation":{"lat":35.344034,"lng":-119.027136}},{"address":"20513 TIFFANY CI TEHACHAPI, CA","kw":5,"permitId":"KERNCO-16CAP-00000-000EO","geoLocation":{"lat":35.1321877,"lng":-118.4489739}},{"address":"2721 LAKE ST BAKERSFIELD, CA","kw":4.505,"permitId":"KERNCO-16CAP-00000-000F5","geoLocation":{"lat":35.373788,"lng":-118.957505}},{"address":"17570 BOLD VENTURE DR TEHACHAPI, CA","kw":3.445,"permitId":"KERNCO-16CAP-00000-000F9"},{"address":"1266 NORD AV BAKERSFIELD, CA","kw":10,"permitId":"KERNCO-16CAP-00000-000FD","geoLocation":{"lat":35.369787,"lng":-119.198246}},{"address":"2307 BERKELEY ST BAKERSFIELD, CA","kw":4.77,"permitId":"KERNCO-16CAP-00000-000FA"},{"address":"13909 TARADALE CT BAKERSFIELD, CA","kw":10.53,"permitId":"KERNCO-16CAP-00000-000CE","geoLocation":{"lat":35.371847,"lng":-119.157636}},{"address":"3541 PIEDMONT AV BAKERSFIELD, CA","kw":6.625,"permitId":"KERNCO-16CAP-00000-000F7","geoLocation":{"lat":35.3927924,"lng":-119.1379587}},{"address":"10208 HOLLAND ST BAKERSFIELD, CA","kw":5.565,"permitId":"KERNCO-16CAP-00000-000F8"},{"address":"6601 BLUE JAY RD LAKE ISABELLA, CA","kw":7.98,"permitId":"KERNCO-16CAP-00000-000CR"},{"address":"7806 HEATHER AV INYOKERN, CA","kw":9.3,"permitId":"KERNCO-16CAP-00000-000DL"},{"address":"23237 JOHNSON CT TEHACHAPI, CA","kw":15,"permitId":"KERNCO-16CAP-00000-000CZ","geoLocation":{"lat":35.125193,"lng":-118.54365}},{"address":"9326 CORTONA CT KERN COUNTY, CA","kw":7.95,"permitId":"KERNCO-16CAP-00000-000AX","geoLocation":{"lat":35.430432,"lng":-119.105703}},{"address":"3913 HIGHLAND HILLS ST BAKERSFIELD, CA","kw":10.46,"permitId":"KERNCO-16CAP-00000-000CN"},{"address":"2272 BUSS CT ROSAMOND, CA","kw":5.56,"permitId":"KERNCO-16CAP-00000-000CL","geoLocation":{"lat":34.8536209,"lng":-118.187602}},{"address":"7306 CREEMORE ST BAKERSFIELD, CA","kw":16.35,"permitId":"KERNCO-16CAP-00000-000CP","geoLocation":{"lat":35.4264149,"lng":-119.0780766}},{"address":"2305 LYNWOOD ST BAKERSFIELD, CA","kw":2.86,"permitId":"KERNCO-16CAP-00000-000CS","geoLocation":{"lat":35.378857,"lng":-118.928704}},{"address":"512 TULIP ST BAKERSFIELD, CA","kw":6.89,"permitId":"KERNCO-16CAP-00000-000AW"},{"address":"5129 FILLMORE AV BAKERSFIELD, CA","kw":3.06,"permitId":"KERNCO-16CAP-00000-000AY","geoLocation":{"lat":35.3694879,"lng":-118.926688}},{"address":"1406 ESPERANZA ST BAKERSFIELD, CA","kw":2,"permitId":"KERNCO-16CAP-00000-000BJ","geoLocation":{"lat":35.370914,"lng":-118.902809}},{"address":"9052 COPPER SPRINGS CT BAKERSFIELD, CA","kw":9.1,"permitId":"KERNCO-16CAP-00000-000B8","geoLocation":{"lat":35.428127,"lng":-119.103166}},{"address":"3817 HAMPTON CT ROSAMOND, CA","kw":6.59,"permitId":"KERNCO-16CAP-00000-000BL","geoLocation":{"lat":34.854013,"lng":-118.200007}},{"address":"8525 POLARIS AV BAKERSFIELD, CA","kw":4.77,"permitId":"KERNCO-16CAP-00000-000B0","geoLocation":{"lat":35.373856,"lng":-118.909021}},{"address":"17323 SADDLE MOUNTAIN DR BAKERSFIELD, CA","kw":11.395,"permitId":"KERNCO-16CAP-00000-0009V","geoLocation":{"lat":35.378287,"lng":-119.194065}},{"address":"17452 HARVEST GROVE CT BAKERSFIELD, CA","kw":11.5,"permitId":"KERNCO-16CAP-00000-000A5","geoLocation":{"lat":35.359471,"lng":-119.19526}},{"address":"11601 WOOD ST LAMONT, CA","kw":5.035,"permitId":"KERNCO-16CAP-00000-00077","geoLocation":{"lat":35.24920900000001,"lng":-118.923841}},{"address":"2836 REMBACH AV BODFISH, CA","kw":2.6,"permitId":"KERNCO-16CAP-00000-000AH","geoLocation":{"lat":35.5760156,"lng":-118.4531768}},{"address":"6120 OLIVE DR BAKERSFIELD, CA","kw":11.395,"permitId":"KERNCO-16CAP-00000-0007D","geoLocation":{"lat":35.412734,"lng":-119.071}},{"address":"1207 PEARL ST BAKERSFIELD, CA","kw":3.9,"permitId":"KERNCO-16CAP-00000-0007B","geoLocation":{"lat":35.3881889,"lng":-118.979899}},{"address":"702 SOUTHGATE DR BAKERSFIELD, CA","kw":4.77,"permitId":"KERNCO-16CAP-00000-0007C","geoLocation":{"lat":35.3360259,"lng":-119.00999}},{"address":"11212 CAVE AV BAKERSFIELD, CA","kw":5.6,"permitId":"KERNCO-16CAP-00000-000A6","geoLocation":{"lat":35.392086,"lng":-119.127322}},{"address":"15402 SAINT CLEMENT WY BAKERSFIELD, CA","kw":8.9,"permitId":"KERNCO-16CAP-00000-000A4","geoLocation":{"lat":35.3939399,"lng":-119.1747876}},{"address":"209 IXTAPA DR BAKERSFIELD, CA","kw":5.4,"permitId":"KERNCO-16CAP-00000-0008U","geoLocation":{"lat":35.3596981,"lng":-118.9539948}},{"address":"1914 MONTEREY ST BAKERSFIELD, CA","kw":2.79,"permitId":"KERNCO-16CAP-00000-0009L","geoLocation":{"lat":35.376645,"lng":-118.97218}},{"address":"1713 FORNAX CT BAKERSFIELD, CA","kw":6.095,"permitId":"KERNCO-16CAP-00000-0007E","geoLocation":{"lat":35.374616,"lng":-118.909593}},{"address":"651 GLENWOOD AV BAKERSFIELD, CA","kw":5.085,"permitId":"KERNCO-16CAP-00000-0007F"},{"address":"222 PILOT AV BAKERSFIELD, CA","kw":2.6,"permitId":"KERNCO-16CAP-00000-000AI","geoLocation":{"lat":35.43760170000001,"lng":-119.0192832}},{"address":"24141 DEERTRAIL DR TEHACHAPI, CA","kw":5.83,"permitId":"KERNCO-16CAP-00000-0007G","geoLocation":{"lat":35.1677139,"lng":-118.644615}},{"address":"243 3RD ST BUTTONWILLOW, CA","kw":5.7,"permitId":"KERNCO-16CAP-00000-0008D","geoLocation":{"lat":35.4019611,"lng":-119.4729752}},{"address":"149 FRANKLIN  RIDGECREST, CA","kw":9.6,"permitId":"KERNCO-16CAP-00000-0006B"},{"address":"12313 JASMINE AV BAKERSFIELD, CA","kw":9.3,"permitId":"KERNCO-16CAP-00000-0006A"},{"address":"37906 HIGHWAY 155  WOODY, CA","kw":19.62,"permitId":"KERNCO-16CAP-00000-00060"},{"address":"22729 WOODFORD TEHACHAPI RD BAKERSFIELD, CA","kw":1.59,"permitId":"KERNCO-16CAP-00000-0003L"},{"address":"2825 28TH ST ROSAMOND, CA","kw":4.24,"permitId":"KERNCO-16CAP-00000-0006J"},{"address":"6415 NASSAU CT BAKERSFIELD, CA","kw":3.38,"permitId":"KERNCO-16CAP-00000-0007I","geoLocation":{"lat":35.388751,"lng":-118.932648}},{"address":"6916 IRON OAK DR BAKERSFIELD, CA","kw":9.275,"permitId":"KERNCO-16CAP-00000-0007H","geoLocation":{"lat":35.4218,"lng":-119.097366}},{"address":"3549 FERNWOOD ST ROSAMOND, CA","kw":5.6,"permitId":"KERNCO-16CAP-00000-00087","geoLocation":{"lat":34.8728174,"lng":-118.1522254}},{"address":"3431 DOUGLAS AV MOJAVE, CA","kw":9.1,"permitId":"KERNCO-16CAP-00000-0005N"},{"address":"1504 GLENWOOD DR BAKERSFIELD, CA","kw":5.3,"permitId":"KERNCO-16CAP-00000-0003M"},{"address":"2313 HENLEY ST BAKERSFIELD, CA","kw":10.865,"permitId":"KERNCO-16CAP-00000-0003T","geoLocation":{"lat":35.3674615,"lng":-118.9657047}},{"address":"26901 BEAR VALLEY RD TEHACHAPI, CA","kw":11.13,"permitId":"KERNCO-16CAP-00000-0003V","geoLocation":{"lat":35.169309,"lng":-118.608094}},{"address":"6231 SUGARLOAF LN BAKERSFIELD, CA","kw":7.95,"permitId":"KERNCO-16CAP-00000-0003R"},{"address":"26620 COLUMBIA WY BEAR VALLEY, CA","kw":4.77,"permitId":"KERNCO-16CAP-00000-0003O"},{"address":"2508 EDWARDS AV BAKERSFIELD, CA","kw":3.975,"permitId":"KERNCO-16CAP-00000-0003W","geoLocation":{"lat":35.385594,"lng":-118.961573}},{"address":"4425 ORRICK CT BAKERSFIELD, CA","kw":6.36,"permitId":"KERNCO-16CAP-00000-0003Q","geoLocation":{"lat":35.445282,"lng":-119.031165}},{"address":"1916 BERNARD ST BAKERSFIELD, CA","kw":3.18,"permitId":"KERNCO-16CAP-00000-0003S","geoLocation":{"lat":35.390577,"lng":-118.969959}},{"address":"925 ORANGE PETAL ST BAKERSFIELD, CA","kw":4.77,"permitId":"KERNCO-16CAP-00000-0003Y","geoLocation":{"lat":35.3670789,"lng":-118.91126}},{"address":"21316 KINGS ST LOST HILLS, CA","kw":4.4,"permitId":"KERNCO-16CAP-00000-0004W","geoLocation":{"lat":35.611244,"lng":-119.688511}},{"address":"15227 RUSSELL AV ARVIN, CA","kw":2,"permitId":"KERNCO-16CAP-00000-0004X","geoLocation":{"lat":35.230568,"lng":-118.834105}},{"address":"3925 BRAE-BURN DR BAKERSFIELD, CA","kw":13.25,"permitId":"KERNCO-16CAP-00000-00040","geoLocation":{"lat":35.388527,"lng":-118.939324}},{"address":"1016 EL TEJON AV BAKERSFIELD, CA","kw":2.6,"permitId":"KERNCO-16CAP-00000-00050","geoLocation":{"lat":35.418308,"lng":-119.042575}},{"address":"1714 M ST BAKERSFIELD, CA","kw":3.71,"permitId":"KERNCO-16CAP-00000-0003N","geoLocation":{"lat":35.3744534,"lng":-119.0152727}},{"address":"2331 CALLOWAY DR BAKERSFIELD, CA","kw":8.8,"permitId":"KERNCO-16CAP-00000-00047","geoLocation":{"lat":35.381357,"lng":-119.110207}},{"address":"1811 JUNE AV BAKERSFIELD, CA","kw":6.5,"permitId":"KERNCO-16CAP-00000-0002I","geoLocation":{"lat":35.3401023,"lng":-119.0226075}},{"address":"19020 PALM AV BAKERSFIELD, CA","kw":14.5,"permitId":"KERNCO-16CAP-00000-0002T","geoLocation":{"lat":35.377075,"lng":-119.213515}},{"address":"9805 VELMA AV LAMONT, CA","kw":3.5,"permitId":"KERNCO-16CAP-00000-0001T","geoLocation":{"lat":35.26575700000001,"lng":-118.912952}},{"address":"14700 DOBBS AV BAKERSFIELD, CA","kw":6.7,"permitId":"KERNCO-16CAP-00000-0001E","geoLocation":{"lat":35.386594,"lng":-119.165499}},{"address":"9502 OAK HILLS AV BAKERSFIELD, CA","kw":7.28,"permitId":"KERNCO-16CAP-00000-0001R","geoLocation":{"lat":35.421473,"lng":-119.108225}},{"address":"912 DWINA AV BAKERSFIELD, CA","kw":8.3,"permitId":"KERNCO-16CAP-00000-0002L","geoLocation":{"lat":35.428289,"lng":-119.011322}},{"address":"29548 MADERA AV SHAFTER, CA","kw":7.15,"permitId":"KERNCO-16CAP-00000-0002S","geoLocation":{"lat":35.523113,"lng":-119.318523}},{"address":"431 CASTAC VIEW RD LEBEC, CA","kw":8.9,"permitId":"KERNCO-16CAP-00000-0002B","geoLocation":{"lat":34.828299,"lng":-118.8919722}},{"address":"1114 DESCANSO ST BAKERSFIELD, CA","kw":2.65,"permitId":"KERNCO-16CAP-00000-00002","geoLocation":{"lat":35.37445,"lng":-118.954385}},{"address":"14409 WILDHEATHER AV BAKERSFIELD, CA","kw":7.155,"permitId":"KERNCO-16CAP-00000-00006","geoLocation":{"lat":35.366009,"lng":-119.161959}},{"address":"133 SUNNY MEADOW DR BAKERSFIELD, CA","kw":6.3,"permitId":"KERNCO-16CAP-00000-00004","geoLocation":{"lat":35.4355384,"lng":-119.0230568}},{"address":"18500 DAVOS DR TEHACHAPI, CA","kw":2.65,"permitId":"KERNCO-16CAP-00000-00009","geoLocation":{"lat":35.091859,"lng":-118.520525}},{"address":"16025 MARTY AV BAKERSFIELD, CA","kw":7.74,"permitId":"KERNCO-16CAP-00000-0000T","geoLocation":{"lat":35.380595,"lng":-119.180724}},{"address":"419 JANE ST BAKERSFIELD, CA","kw":7.155,"permitId":"KERNCO-15CAP-00000-00A6X","geoLocation":{"lat":35.366454,"lng":-118.934536}},{"address":"3606 BIANCHI WY BAKERSFIELD, CA","kw":8.745,"permitId":"KERNCO-15CAP-00000-00A6W"},{"address":"11017 SAN FERNANDO ST LAMONT, CA","kw":5.83,"permitId":"KERNCO-15CAP-00000-00A6Y"},{"address":"3307 FILLMORE AV BAKERSFIELD, CA","kw":5.565,"permitId":"KERNCO-15CAP-00000-00A6U"},{"address":"18201 HAMBLETONIAN DR TEHACHAPI, CA","kw":4.505,"permitId":"KERNCO-16CAP-00000-00003","geoLocation":{"lat":35.0844669,"lng":-118.616989}},{"address":"21610 GINGER CT TEHACHAPI, CA","kw":3.18,"permitId":"KERNCO-15CAP-00000-00A6Z"},{"address":"504 EASTER ST BAKERSFIELD, CA","kw":4.24,"permitId":"KERNCO-16CAP-00000-00005","geoLocation":{"lat":35.362573,"lng":-118.962869}},{"address":"1130 BALDWIN RD BAKERSFIELD, CA","kw":9.54,"permitId":"KERNCO-16CAP-00000-00007","geoLocation":{"lat":35.343305,"lng":-119.028621}},{"address":"14438 ROWLAND AV BAKERSFIELD, CA","kw":11.925,"permitId":"KERNCO-15CAP-00000-00A6S","geoLocation":{"lat":35.365558,"lng":-119.162918}},{"address":"15629 CHATEAU MONTELENA DR BAKERSFIELD, CA","kw":11.1,"permitId":"KERNCO-15CAP-00000-00A62"},{"address":"13421 POWDER RIVER AV BAKERSFIELD, CA","kw":11.04,"permitId":"KERNCO-15CAP-00000-00A63","geoLocation":{"lat":35.39577999999999,"lng":-119.151618}},{"address":"11817 APRIL ANN AV BAKERSFIELD, CA","kw":3.5,"permitId":"KERNCO-15CAP-00000-00A7R"},{"address":"11909 SNOWBERRY LN BAKERSFIELD, CA","kw":11.1,"permitId":"KERNCO-15CAP-00000-00A89"},{"address":"7805 JENSEN AV BAKERSFIELD, CA","kw":10.675,"permitId":"KERNCO-15CAP-00000-00A6N","geoLocation":{"lat":35.426118,"lng":-119.088978}},{"address":"21730 VERDE ST TEHACHAPI, CA","kw":6.095,"permitId":"KERNCO-15CAP-00000-00A44","geoLocation":{"lat":35.13431300000001,"lng":-118.487566}},{"address":"3525 PIEDMONT AV BAKERSFIELD, CA","kw":2.915,"permitId":"KERNCO-15CAP-00000-00A43","geoLocation":{"lat":35.392324,"lng":-119.137766}},{"address":"2104 AUTUMN ST BAKERSFIELD, CA","kw":5.3,"permitId":"KERNCO-15CAP-00000-00A40","geoLocation":{"lat":35.3773982,"lng":-118.9311693}},{"address":"21166 UNIVERSAL ST LOST HILLS, CA","kw":5.61,"permitId":"KERNCO-15CAP-00000-00A48","geoLocation":{"lat":35.617443,"lng":-119.692774}},{"address":"13800 LAVERTON AV BAKERSFIELD, CA","kw":11.4,"permitId":"KERNCO-15CAP-00000-00A7L"},{"address":"3118 SILVER SPUR WY BAKERSFIELD, CA","kw":5.6,"permitId":"KERNCO-15CAP-00000-00A5X"},{"address":"14939 STONE RIVER CT KERN COUNTY, CA","kw":10,"permitId":"KERNCO-15CAP-00000-00A86"},{"address":"13804 WESTBURY AV BAKERSFIELD, CA","kw":20,"permitId":"KERNCO-15CAP-00000-00A64","geoLocation":{"lat":35.375334,"lng":-119.156404}},{"address":"2820 ARROYITA DR BAKERSFIELD, CA","kw":6.89,"permitId":"KERNCO-15CAP-00000-00A49","geoLocation":{"lat":35.400094,"lng":-118.994953}},{"address":"279 SHERMAN PEAK DR BAKERSFIELD, CA","kw":5.3,"permitId":"KERNCO-15CAP-00000-00A4S","geoLocation":{"lat":35.4322627,"lng":-119.0251373}},{"address":"1407 MONTE VISTA AV ROSAMOND, CA","kw":3.18,"permitId":"KERNCO-15CAP-00000-00A4Q","geoLocation":{"lat":34.868013,"lng":-118.1568813}},{"address":"12555 ESTHER ST BORON, CA","kw":5.3,"permitId":"KERNCO-15CAP-00000-00A4R","geoLocation":{"lat":35.006886,"lng":-117.646844}},{"address":"13420 SMOKE CREEK AV BAKERSFIELD, CA","kw":11.5,"permitId":"KERNCO-15CAP-00000-00A4N","geoLocation":{"lat":35.397571,"lng":-119.151569}},{"address":"4644 CANNON ST BAKERSFIELD, CA","kw":5.565,"permitId":"KERNCO-15CAP-00000-00A47","geoLocation":{"lat":35.402579,"lng":-119.322491}},{"address":"16449 BECKY AV BAKERSFIELD, CA","kw":11.4,"permitId":"KERNCO-15CAP-00000-00A2W","geoLocation":{"lat":35.392095,"lng":-119.184916}},{"address":"4361 STETSON AV ROSAMOND, CA","kw":4.5,"permitId":"KERNCO-15CAP-00000-00A30","geoLocation":{"lat":34.86782700000001,"lng":-118.209163}},{"address":"5164 ASTORIA AV ROSAMOND, CA","kw":5.9,"permitId":"KERNCO-15CAP-00000-00A2Z","geoLocation":{"lat":34.855847,"lng":-118.223067}},{"address":"6239 HAWK  RIDGECREST, CA","kw":7.905,"permitId":"KERNCO-15CAP-00000-00A1J","geoLocation":{"lat":38.6770741,"lng":-121.2431828}},{"address":"1401 ADENA ST BAKERSFIELD, CA","kw":2.3,"permitId":"KERNCO-15CAP-00000-00A3J","geoLocation":{"lat":35.370904,"lng":-118.906108}},{"address":"13240 MARGO ST EDWARDS, CA","kw":5.8,"permitId":"KERNCO-15CAP-00000-00A32","geoLocation":{"lat":35.016976,"lng":-117.819702}},{"address":"2130 SANDY LN BAKERSFIELD, CA","kw":5.7,"permitId":"KERNCO-15CAP-00000-00A33","geoLocation":{"lat":35.38682,"lng":-118.958288}},{"address":"3806 DALEHURST DR BAKERSFIELD, CA","kw":8.7,"permitId":"KERNCO-15CAP-00000-00A3A","geoLocation":{"lat":35.388668,"lng":-118.948249}},{"address":"2465 WERNER ST ROSAMOND, CA","kw":4.2,"permitId":"KERNCO-15CAP-00000-00A3M","geoLocation":{"lat":34.8563309,"lng":-118.198369}},{"address":"1626 SUNLAND  RIDGECREST, CA","kw":5.56,"permitId":"KERNCO-15CAP-00000-00A1I","geoLocation":{"lat":35.59487110000001,"lng":-117.6616303}},{"address":"3472 35TH ST ROSAMOND, CA","kw":7.5,"permitId":"KERNCO-15CAP-00000-00A3L","geoLocation":{"lat":34.8708123,"lng":-118.1934932}},{"address":"3801 FERNWOOD ST ROSAMOND, CA","kw":8.3,"permitId":"KERNCO-15CAP-00000-00A1N","geoLocation":{"lat":34.8765361,"lng":-118.1517819}},{"address":"12112 PALM AV BAKERSFIELD, CA","kw":10.6,"permitId":"KERNCO-15CAP-00000-00A29","geoLocation":{"lat":35.376587,"lng":-119.137813}},{"address":"15708 TRADITION CT BAKERSFIELD, CA","kw":17.775,"permitId":"KERNCO-15CAP-00000-00A2A","geoLocation":{"lat":35.356139,"lng":-119.177472}},{"address":"14610 REDWOOD PASS DR BAKERSFIELD, CA","kw":11.13,"permitId":"KERNCO-15CAP-00000-00A2B","geoLocation":{"lat":35.389351,"lng":-119.165638}},{"address":"611 HENSON ST BAKERSFIELD, CA","kw":13.4,"permitId":"KERNCO-15CAP-00000-00A0D","geoLocation":{"lat":35.36398399999999,"lng":-119.157167}},{"address":"6255 AUTUMN AV INYOKERN, CA","kw":5.3,"permitId":"KERNCO-15CAP-00000-009ZZ","geoLocation":{"lat":35.638832,"lng":-117.806638}},{"address":"4891 BIRDIE LN BAKERSFIELD, CA","kw":4.94,"permitId":"KERNCO-15CAP-00000-00A0E","geoLocation":{"lat":35.448329,"lng":-119.023697}},{"address":"3001 SARATOGA ST BAKERSFIELD, CA","kw":7.8,"permitId":"KERNCO-15CAP-00000-00A0C","geoLocation":{"lat":35.38055,"lng":-118.947416}},{"address":"1005 BUNTING DR BAKERSFIELD, CA","kw":8.215,"permitId":"KERNCO-15CAP-00000-00A2D","geoLocation":{"lat":35.3443867,"lng":-118.9984911}},{"address":"912 HELEN WY BAKERSFIELD, CA","kw":8.1,"permitId":"KERNCO-15CAP-00000-00A2S","geoLocation":{"lat":35.271125,"lng":-119.012836}},{"address":"12413 PRAIRIE ROSE WY BAKERSFIELD, CA","kw":9.1,"permitId":"KERNCO-15CAP-00000-00A0F","geoLocation":{"lat":35.37830599999999,"lng":-119.14067}},{"address":"174 OWL RD BAKERSFIELD, CA","kw":11.3,"permitId":"KERNCO-15CAP-00000-00A0W","geoLocation":{"lat":35.523957,"lng":-119.066304}},{"address":"8434 ANDROMEDA LN BAKERSFIELD, CA","kw":12.7,"permitId":"KERNCO-15CAP-00000-009Z4","geoLocation":{"lat":35.375125,"lng":-118.907684}},{"address":"1221 DAWN ST BAKERSFIELD, CA","kw":5.89,"permitId":"KERNCO-15CAP-00000-009Z6","geoLocation":{"lat":35.3431581,"lng":-119.0071481}},{"address":"4161 STETSON AV ROSAMOND, CA","kw":6.6,"permitId":"KERNCO-15CAP-00000-009Z9","geoLocation":{"lat":34.867811,"lng":-118.205601}},{"address":"906 ELIZABETH CT BAKERSFIELD, CA","kw":8.3,"permitId":"KERNCO-15CAP-00000-009ZK","geoLocation":{"lat":35.434636,"lng":-119.011948}},{"address":"3301 PIONEER DR BAKERSFIELD, CA","kw":4.96,"permitId":"KERNCO-15CAP-00000-009ZO"},{"address":"508 QUAIL ROCK AV BAKERSFIELD, CA","kw":5.3,"permitId":"KERNCO-15CAP-00000-009WL"},{"address":"22081 LEMANS DR TEHACHAPI, CA","kw":4.77,"permitId":"KERNCO-15CAP-00000-009WM"},{"address":"14318 SEARSPOINT AV BAKERSFIELD, CA","kw":6.625,"permitId":"KERNCO-15CAP-00000-009WN"},{"address":"300 E ST TAFT, CA","kw":7.155,"permitId":"KERNCO-15CAP-00000-009WP"},{"address":"33549 POND RD MCFARLAND, CA","kw":2.385,"permitId":"KERNCO-15CAP-00000-009WQ"},{"address":"17620 BUSHER WY TEHACHAPI, CA","kw":5,"permitId":"KERNCO-15CAP-00000-009XF"},{"address":"3308 JANENE WY BAKERSFIELD, CA","kw":6.36,"permitId":"KERNCO-15CAP-00000-009UL","geoLocation":{"lat":35.383932,"lng":-118.939875}},{"address":"2170 MATTHEW AV ROSAMOND, CA","kw":4.5,"permitId":"KERNCO-15CAP-00000-009VN","geoLocation":{"lat":34.855902,"lng":-118.170511}},{"address":"2035 NILES ST BAKERSFIELD, CA","kw":2.86,"permitId":"KERNCO-15CAP-00000-009UO","geoLocation":{"lat":35.376555,"lng":-118.969755}},{"address":"8125 LANORA AV BAKERSFIELD, CA","kw":6.095,"permitId":"KERNCO-15CAP-00000-009UQ","geoLocation":{"lat":35.365956,"lng":-118.912741}},{"address":"6308 ALMOND DR BAKERSFIELD, CA","kw":6.095,"permitId":"KERNCO-15CAP-00000-009UM","geoLocation":{"lat":35.4165319,"lng":-119.068663}},{"address":"4201 CORK LN BAKERSFIELD, CA","kw":5.3,"permitId":"KERNCO-15CAP-00000-009UR","geoLocation":{"lat":35.343341,"lng":-119.048335}},{"address":"7408 NORRIS RD BAKERSFIELD, CA","kw":9.15,"permitId":"KERNCO-15CAP-00000-009XM"},{"address":"518 F ST TAFT, CA","kw":6.76,"permitId":"KERNCO-15CAP-00000-009W1","geoLocation":{"lat":35.132934,"lng":-119.472338}},{"address":"6707 WELDON AV BAKERSFIELD, CA","kw":5.46,"permitId":"KERNCO-15CAP-00000-009XY"},{"address":"500 PHILIPPINE ST TAFT, CA","kw":5.565,"permitId":"KERNCO-15CAP-00000-009UN","geoLocation":{"lat":35.135354,"lng":-119.471183}},{"address":"1232 WRIGHTWOOD CT ROSAMOND, CA","kw":2.12,"permitId":"KERNCO-15CAP-00000-009Y4"},{"address":"5204 LAGUNA ST BAKERSFIELD, CA","kw":9.54,"permitId":"KERNCO-15CAP-00000-009UV","geoLocation":{"lat":35.381355,"lng":-118.946253}},{"address":"6718 HERMOSA RD BAKERSFIELD, CA","kw":7.685,"permitId":"KERNCO-15CAP-00000-009UT","geoLocation":{"lat":35.312341,"lng":-118.930688}},{"address":"3707 POSITANO PL BAKERSFIELD, CA","kw":6.62,"permitId":"KERNCO-15CAP-00000-009V8","geoLocation":{"lat":35.39309009999999,"lng":-119.180102}},{"address":"18580 ST ANDREWS DR TEHACHAPI, CA","kw":2.12,"permitId":"KERNCO-15CAP-00000-009UX","geoLocation":{"lat":35.090062,"lng":-118.637689}},{"address":"11735 WILD HARBER ST TAFT, CA","kw":5.6,"permitId":"KERNCO-15CAP-00000-009VA","geoLocation":{"lat":35.2313475,"lng":-119.3706978}},{"address":"16015 BUENA VISTA BL ARVIN, CA","kw":12.985,"permitId":"KERNCO-15CAP-00000-009US","geoLocation":{"lat":35.237799,"lng":-118.825264}},{"address":"260 HERMOSA DR BAKERSFIELD, CA","kw":3.18,"permitId":"KERNCO-15CAP-00000-009UU","geoLocation":{"lat":35.402671,"lng":-118.995928}},{"address":"24608 TRANSVAAL RD TEHACHAPI, CA","kw":5.3,"permitId":"KERNCO-15CAP-00000-009UW","geoLocation":{"lat":35.177019,"lng":-118.323034}},{"address":"13137 APPALOOSA AV BAKERSFIELD, CA","kw":9.54,"permitId":"KERNCO-15CAP-00000-009V9","geoLocation":{"lat":35.366632,"lng":-119.154038}},{"address":"9312 RHINE VALLEY DR BAKERSFIELD, CA","kw":4.5,"permitId":"KERNCO-15CAP-00000-009VE","geoLocation":{"lat":35.3741787,"lng":-118.9000631}},{"address":"6800 SHAFTER RD BAKERSFIELD, CA","kw":7.28,"permitId":"KERNCO-15CAP-00000-009SS","geoLocation":{"lat":35.224339,"lng":-119.077701}},{"address":"15915 LEGACY CT BAKERSFIELD, CA","kw":9.435,"permitId":"KERNCO-15CAP-00000-009SR","geoLocation":{"lat":35.35673,"lng":-119.179536}},{"address":"639 SUNSET MEADOW LN BAKERSFIELD, CA","kw":5.6,"permitId":"KERNCO-15CAP-00000-009SZ"},{"address":"18360 BUCKAROO CT BAKERSFIELD, CA","kw":6.2,"permitId":"KERNCO-15CAP-00000-009ST"},{"address":"13501 CEDAR CREEK AV BAKERSFIELD, CA","kw":10.6,"permitId":"KERNCO-15CAP-00000-009T7"},{"address":"16915 GLENDOWER AV NORTH EDWARDS, CA","kw":5.03,"permitId":"KERNCO-15CAP-00000-009TP"},{"address":"13703 TABLE ROCK AV BAKERSFIELD, CA","kw":10.4,"permitId":"KERNCO-15CAP-00000-009T0"},{"address":"7700 PEMBROKE AV BAKERSFIELD, CA","kw":9.9,"permitId":"KERNCO-15CAP-00000-009TR"},{"address":"118 PIERCE ST TAFT, CA","kw":5.2,"permitId":"KERNCO-15CAP-00000-009RK"},{"address":"4050 MANLY RD ROSAMOND, CA","kw":29.4,"permitId":"KERNCO-15CAP-00000-009SA","geoLocation":{"lat":34.877858,"lng":-118.294868}},{"address":"6463 SHADOW HILLS DR BAKERSFIELD, CA","kw":"","permitId":"KERNCO-15CAP-00000-009QT","geoLocation":{"lat":35.4303669,"lng":-118.934489}},{"address":"10082 LESLIE AV ROSAMOND, CA","kw":6.36,"permitId":"KERNCO-15CAP-00000-009S5"},{"address":"313 GENERAL PETROLEUM AV TAFT, CA","kw":3.8,"permitId":"KERNCO-15CAP-00000-009QX","geoLocation":{"lat":35.133804,"lng":-119.452982}},{"address":"2879 LAUREL ST ROSAMOND, CA","kw":2.91,"permitId":"KERNCO-15CAP-00000-009S6","geoLocation":{"lat":34.862429,"lng":-118.1724928}},{"address":"7506 TERRY JOHN AV BAKERSFIELD, CA","kw":9.12,"permitId":"KERNCO-15CAP-00000-009R0","geoLocation":{"lat":35.418293,"lng":-119.086246}},{"address":"825 BURLANDO RD KERNVILLE, CA","kw":6.24,"permitId":"KERNCO-15CAP-00000-009RA","geoLocation":{"lat":35.767346,"lng":-118.433824}},{"address":"13755 COSTAJO ST BAKERSFIELD, CA","kw":7.125,"permitId":"KERNCO-15CAP-00000-009SG","geoLocation":{"lat":35.229692,"lng":-119.015291}},{"address":"2701 LONE OAK DR BAKERSFIELD, CA","kw":6.5,"permitId":"KERNCO-15CAP-00000-009U4"},{"address":"3608 PINEHURST DR BAKERSFIELD, CA","kw":9.5,"permitId":"KERNCO-15CAP-00000-009SM","geoLocation":{"lat":35.386524,"lng":-118.944838}},{"address":"7017 LUKE AV BAKERSFIELD, CA","kw":7.56,"permitId":"KERNCO-15CAP-00000-009RP"},{"address":"9101 CHERYL ST LAMONT, CA","kw":2,"permitId":"KERNCO-15CAP-00000-009RD","geoLocation":{"lat":35.272416,"lng":-118.911481}},{"address":"3205 CALIENTE ST BAKERSFIELD, CA","kw":6.36,"permitId":"KERNCO-15CAP-00000-009PA","geoLocation":{"lat":35.3827912,"lng":-118.9454164}},{"address":"3205 LA ENTRADA CT BAKERSFIELD, CA","kw":7.42,"permitId":"KERNCO-15CAP-00000-009PX","geoLocation":{"lat":35.382369,"lng":-118.941584}},{"address":"2396 BRITE ST BAKERSFIELD, CA","kw":6.36,"permitId":"KERNCO-15CAP-00000-009PB","geoLocation":{"lat":35.3519386,"lng":-119.02924}},{"address":"13928 LA CASCADA CT BAKERSFIELD, CA","kw":10.36,"permitId":"KERNCO-15CAP-00000-009RH","geoLocation":{"lat":35.3963719,"lng":-119.1570445}},{"address":"7008 LUKE AV BAKERSFIELD, CA","kw":11.44,"permitId":"KERNCO-15CAP-00000-009PU","geoLocation":{"lat":35.42657,"lng":-119.080129}},{"address":"10517 SAN GORGONIO ST LAMONT, CA","kw":6.54,"permitId":"KERNCO-15CAP-00000-009PY","geoLocation":{"lat":35.259002,"lng":-118.919463}},{"address":"11005 GLENCOE PL LAMONT, CA","kw":5.83,"permitId":"KERNCO-15CAP-00000-009P8","geoLocation":{"lat":35.25492,"lng":-118.910566}},{"address":"3436 GEMSTONE AV ROSAMOND, CA","kw":3.18,"permitId":"KERNCO-15CAP-00000-009QD","geoLocation":{"lat":34.853507,"lng":-118.193388}},{"address":"8208 COPPER ST LAMONT, CA","kw":6.86,"permitId":"KERNCO-15CAP-00000-009Q3","geoLocation":{"lat":35.261333,"lng":-118.912761}},{"address":"14926 REDWOOD VALLEY DR BAKERSFIELD, CA","kw":10.2,"permitId":"KERNCO-15CAP-00000-009Q7"},{"address":"3848 UNITED ST ROSAMOND, CA","kw":3.71,"permitId":"KERNCO-15CAP-00000-009QG","geoLocation":{"lat":34.877372,"lng":-118.149492}},{"address":"4005 MADRID AV BAKERSFIELD, CA","kw":10.9,"permitId":"KERNCO-15CAP-00000-009OQ"},{"address":"2909 LINDEN AV BAKERSFIELD, CA","kw":2.2,"permitId":"KERNCO-15CAP-00000-009NF"},{"address":"735 WAYNE DR BAKERSFIELD, CA","kw":3.72,"permitId":"KERNCO-15CAP-00000-009ND"},{"address":"3600 GOLD STONE LN ROSAMOND, CA","kw":2.12,"permitId":"KERNCO-15CAP-00000-009NW"},{"address":"4506 SKYE DR BAKERSFIELD, CA","kw":7.8,"permitId":"KERNCO-15CAP-00000-009NX"},{"address":"3608 GOLD CREST LN ROSAMOND, CA","kw":4.905,"permitId":"KERNCO-15CAP-00000-009PZ","geoLocation":{"lat":34.873011,"lng":-118.180514}},{"address":"147 DOUGLAS ST BAKERSFIELD, CA","kw":5.89,"permitId":"KERNCO-15CAP-00000-009Q6"},{"address":"2774 65th ST Rosamond, CA","kw":2.91,"permitId":"KERNCO-15CAP-00000-009QB"},{"address":"7340 CANNELL WY KERNVILLE, CA","kw":5.5,"permitId":"KERNCO-15CAP-00000-009QI"},{"address":"5300 SHAKER CT BAKERSFIELD, CA","kw":9.6,"permitId":"KERNCO-15CAP-00000-009O1"},{"address":"8904 HOPE AV LAMONT, CA","kw":2.385,"permitId":"KERNCO-15CAP-00000-009L1","geoLocation":{"lat":35.261056,"lng":-118.9061177}},{"address":"11711 WHIPPOORWILL LN BAKERSFIELD, CA","kw":5.565,"permitId":"KERNCO-15CAP-00000-009L2","geoLocation":{"lat":35.384461,"lng":-119.13336}},{"address":"13146 EBERLE RD BAKERSFIELD, CA","kw":23.585,"permitId":"KERNCO-15CAP-00000-009L3","geoLocation":{"lat":35.235486,"lng":-119.08209}},{"address":"10301 SAN EMIDIO ST LAMONT, CA","kw":3.5,"permitId":"KERNCO-15CAP-00000-009NZ","geoLocation":{"lat":35.26175,"lng":-118.921513}},{"address":"2521 LOMITA VERDE DR BAKERSFIELD, CA","kw":3.975,"permitId":"KERNCO-15CAP-00000-009L4","geoLocation":{"lat":35.3963183,"lng":-118.9947764}},{"address":"901 DAY AV BAKERSFIELD, CA","kw":7.155,"permitId":"KERNCO-15CAP-00000-009LD","geoLocation":{"lat":35.4352075,"lng":-119.0122362}},{"address":"1196 MC CURDY DR BAKERSFIELD, CA","kw":6.095,"permitId":"KERNCO-15CAP-00000-009L7","geoLocation":{"lat":35.3760044,"lng":-118.9380201}},{"address":"4200 GLENCANNON ST BAKERSFIELD, CA","kw":11.66,"permitId":"KERNCO-15CAP-00000-009L9","geoLocation":{"lat":35.4428539,"lng":-119.028367}},{"address":"18140 BUCKBOARD AV BAKERSFIELD, CA","kw":9.805,"permitId":"KERNCO-15CAP-00000-009LB","geoLocation":{"lat":35.386601,"lng":-119.204395}},{"address":"1835 CHEVY CHASE WY BAKERSFIELD, CA","kw":3.975,"permitId":"KERNCO-15CAP-00000-009LF","geoLocation":{"lat":35.384572,"lng":-118.956357}},{"address":"8120 HOSEY AV BAKERSFIELD, CA","kw":9.01,"permitId":"KERNCO-15CAP-00000-009L6","geoLocation":{"lat":35.22844,"lng":-119.09386}},{"address":"9012 CRESSON CT BAKERSFIELD, CA","kw":2.915,"permitId":"KERNCO-15CAP-00000-009L8","geoLocation":{"lat":35.272835,"lng":-119.016685}},{"address":"7301 CREEMORE ST BAKERSFIELD, CA","kw":7.95,"permitId":"KERNCO-15CAP-00000-009LA","geoLocation":{"lat":35.426239,"lng":-119.078704}},{"address":"9013 RUBEN ST LAMONT, CA","kw":5.83,"permitId":"KERNCO-15CAP-00000-009LC","geoLocation":{"lat":35.272989,"lng":-118.912494}},{"address":"2722 EDWARDS AV BAKERSFIELD, CA","kw":5.83,"permitId":"KERNCO-15CAP-00000-009LJ","geoLocation":{"lat":35.387071,"lng":-118.958657}},{"address":"121 BELLE AV BAKERSFIELD, CA","kw":6.89,"permitId":"KERNCO-15CAP-00000-009LH","geoLocation":{"lat":35.410217,"lng":-119.023126}},{"address":"113 WASHINGTON AV BAKERSFIELD, CA","kw":6.625,"permitId":"KERNCO-15CAP-00000-009LI","geoLocation":{"lat":35.4152646,"lng":-119.0223583}},{"address":"15802 LEGACY CT BAKERSFIELD, CA","kw":19.9,"permitId":"KERNCO-15CAP-00000-009LN","geoLocation":{"lat":35.357674,"lng":-119.177866}},{"address":"23607 LARKSPUR AV GOLDEN HILLS, CA","kw":6.7,"permitId":"KERNCO-15CAP-00000-009LQ","geoLocation":{"lat":35.162359,"lng":-118.499411}},{"address":"3709 LAVERNE AV BAKERSFIELD, CA","kw":6.625,"permitId":"KERNCO-15CAP-00000-009LL","geoLocation":{"lat":35.342521,"lng":-119.044026}},{"address":"213 STIRRUP AV BAKERSFIELD, CA","kw":4.6,"permitId":"KERNCO-15CAP-00000-009LO","geoLocation":{"lat":35.2677369,"lng":-119.00562}},{"address":"1714 ALAMEDA AV BAKERSFIELD, CA","kw":6.095,"permitId":"KERNCO-15CAP-00000-009LG","geoLocation":{"lat":35.387796,"lng":-118.972383}},{"address":"13214 EBERLE RD PUMPKIN CENTER, CA","kw":9.3,"permitId":"KERNCO-15CAP-00000-009LP","geoLocation":{"lat":35.235021,"lng":-119.082185}},{"address":"3115 TUMBLEWEED AV ROSAMOND, CA","kw":5.89,"permitId":"KERNCO-15CAP-00000-009LV","geoLocation":{"lat":34.8543249,"lng":-118.1872229}},{"address":"11000 MEACHAM RD BAKERSFIELD, CA","kw":6.1,"permitId":"KERNCO-15CAP-00000-009MB","geoLocation":{"lat":35.391022,"lng":-119.124264}},{"address":"2517 SCARLET BELLE CT BAKERSFIELD, CA","kw":7.8,"permitId":"KERNCO-15CAP-00000-009ME","geoLocation":{"lat":35.382886,"lng":-119.179432}},{"address":"15617 SCREAMING EAGLE AV KERN COUNTY, CA","kw":9.1,"permitId":"KERNCO-15CAP-00000-009MD","geoLocation":{"lat":35.37538,"lng":-119.175756}},{"address":"9120 UNION AV BAKERSFIELD, CA","kw":7.5,"permitId":"KERNCO-15CAP-00000-009MP","geoLocation":{"lat":35.4008401,"lng":-119.0028034}},{"address":"15801 SUSAN EILEEN AV BAKERSFIELD, CA","kw":4.5,"permitId":"KERNCO-15CAP-00000-009JW"},{"address":"18849 ROSEDALE HY BAKERSFIELD, CA","kw":29.4,"permitId":"KERNCO-15CAP-00000-009MC"},{"address":"32163 HANAWALT AV MCFARLAND, CA","kw":4.9,"permitId":"KERNCO-15CAP-00000-009LR"},{"address":"10921 GLENCOE PL LAMONT, CA","kw":2.3,"permitId":"KERNCO-15CAP-00000-009LY"},{"address":"421 CALE CT BAKERSFIELD, CA","kw":2.8,"permitId":"KERNCO-15CAP-00000-009MH","geoLocation":{"lat":35.413792,"lng":-119.013666}},{"address":"5660 PATTON WY BAKERSFIELD, CA","kw":4.9,"permitId":"KERNCO-15CAP-00000-009JX"},{"address":"4040 MANLY RD ROSAMOND, CA","kw":29.7,"permitId":"KERNCO-15CAP-00000-009JZ"},{"address":"2145 WESTPARK DR ROSAMOND, CA","kw":3.3,"permitId":"KERNCO-15CAP-00000-009KH"},{"address":"30201 ROLLINGOAK DR TEHACHAPI, CA","kw":4.24,"permitId":"KERNCO-15CAP-00000-009KC","geoLocation":{"lat":35.173043,"lng":-118.667006}},{"address":"4207 AVENUE A  ROSAMOND, CA","kw":4.77,"permitId":"KERNCO-15CAP-00000-009KM"},{"address":"3106 GERTRUDE ST ROSAMOND, CA","kw":9.01,"permitId":"KERNCO-15CAP-00000-009KN"},{"address":"2315 POPLAR ST ROSAMOND, CA","kw":3.445,"permitId":"KERNCO-15CAP-00000-009KP"},{"address":"1537 ROSAMOND BL ROSAMOND, CA","kw":3.71,"permitId":"KERNCO-15CAP-00000-009KQ","geoLocation":{"lat":34.8644769,"lng":-118.1592086}},{"address":"7505 SAN EMIDIO CT LAMONT, CA","kw":3.9,"permitId":"KERNCO-15CAP-00000-009H8","geoLocation":{"lat":35.257357,"lng":-118.920807}},{"address":"10801 CAVE AV BAKERSFIELD, CA","kw":6.4,"permitId":"KERNCO-15CAP-00000-009IS","geoLocation":{"lat":35.3915239,"lng":-119.122048}},{"address":"5266 BACKUS RD MOJAVE, CA","kw":8.48,"permitId":"KERNCO-15CAP-00000-009JC","geoLocation":{"lat":34.949912,"lng":-118.226026}},{"address":"3916 EDEN ST BAKERSFIELD, CA","kw":7.15,"permitId":"KERNCO-15CAP-00000-009JF","geoLocation":{"lat":35.395479,"lng":-119.125872}},{"address":"6068 PEBBLE BEACH AV RIDGECREST, CA","kw":7,"permitId":"KERNCO-15CAP-00000-009H9","geoLocation":{"lat":38.6680945,"lng":-121.2718697}},{"address":"33186 FAMOSO RD FAMOSO, CA","kw":22.8,"permitId":"KERNCO-15CAP-00000-009II","geoLocation":{"lat":35.6020207,"lng":-119.1843401}},{"address":"20811 PEGASUS ST TEHACHAPI, CA","kw":5.565,"permitId":"KERNCO-15CAP-00000-009J9","geoLocation":{"lat":35.120737,"lng":-118.621531}},{"address":"9118 CELESTE CT BAKERSFIELD, CA","kw":5.6,"permitId":"KERNCO-15CAP-00000-009HA","geoLocation":{"lat":35.422714,"lng":-119.104143}},{"address":"328 PILOT AV BAKERSFIELD, CA","kw":5.3,"permitId":"KERNCO-15CAP-00000-009IK","geoLocation":{"lat":35.4376036,"lng":-119.0182278}},{"address":"19 GRANDVIEW AV KERNVILLE, CA","kw":4.42,"permitId":"KERNCO-15CAP-00000-009HI","geoLocation":{"lat":35.766678,"lng":-118.43525}},{"address":"12626 CLIFF AV BAKERSFIELD, CA","kw":5.3,"permitId":"KERNCO-15CAP-00000-009IH","geoLocation":{"lat":35.400409,"lng":-118.863703}},{"address":"501 SIRRETTA ST KERNVILLE, CA","kw":8.58,"permitId":"KERNCO-15CAP-00000-009HJ","geoLocation":{"lat":35.7628261,"lng":-118.4303949}},{"address":"7404 LYNETT CT LAMONT, CA","kw":2,"permitId":"KERNCO-15CAP-00000-009HD","geoLocation":{"lat":35.258643,"lng":-118.921617}},{"address":"2301 SHADOW MOUNTAIN DR SQUIRREL MOUNTAIN VALLEY, CA","kw":6.09,"permitId":"KERNCO-15CAP-00000-009HS","geoLocation":{"lat":35.603474,"lng":-118.404137}},{"address":"821 FOX TREE CT BAKERSFIELD, CA","kw":4.68,"permitId":"KERNCO-15CAP-00000-009F5","geoLocation":{"lat":35.366166,"lng":-118.908601}},{"address":"15917 SHELLIE MARIE AV BAKERSFIELD, CA","kw":17.1,"permitId":"KERNCO-15CAP-00000-009I8","geoLocation":{"lat":35.3886265,"lng":-119.1791853}},{"address":"6583 DOGWOOD AV ROSAMOND, CA","kw":5.61,"permitId":"KERNCO-15CAP-00000-009F2","geoLocation":{"lat":34.8259929,"lng":-118.248523}},{"address":"7024 CRABLE ST LAKE OF THE WOODS, CA","kw":5.9,"permitId":"KERNCO-15CAP-00000-009HZ","geoLocation":{"lat":34.815738,"lng":-119.004968}},{"address":"15971 JEAN DR MOJAVE, CA","kw":4.77,"permitId":"KERNCO-15CAP-00000-009HP","geoLocation":{"lat":35.05309099999999,"lng":-118.188531}},{"address":"21821 MID WY TEHACHAPI, CA","kw":4.24,"permitId":"KERNCO-15CAP-00000-009HO","geoLocation":{"lat":35.137616,"lng":-118.491981}},{"address":"6817 MIGNONETTE ST BAKERSFIELD, CA","kw":5.83,"permitId":"KERNCO-15CAP-00000-009HQ","geoLocation":{"lat":35.422868,"lng":-119.080132}},{"address":"4419 GLENCANNON ST BAKERSFIELD, CA","kw":5.7,"permitId":"KERNCO-15CAP-00000-009F6","geoLocation":{"lat":35.4452659,"lng":-119.028944}},{"address":"15504 AZALEA SPRINGS CT BAKERSFIELD, CA","kw":9.01,"permitId":"KERNCO-15CAP-00000-009DU","geoLocation":{"lat":35.36639,"lng":-119.174393}},{"address":"8330 BIG AL AV BAKERSFIELD, CA","kw":7.21,"permitId":"KERNCO-15CAP-00000-009FI","geoLocation":{"lat":35.334702,"lng":-118.910807}},{"address":"3005 ASHBY ST BAKERSFIELD, CA","kw":11.11,"permitId":"KERNCO-15CAP-00000-009FP","geoLocation":{"lat":35.433452,"lng":-119.014156}},{"address":"1015 STERLING RD BAKERSFIELD, CA","kw":2.91,"permitId":"KERNCO-15CAP-00000-009FM","geoLocation":{"lat":35.373475,"lng":-118.940531}},{"address":"14717 PALM AV BAKERSFIELD, CA","kw":3.445,"permitId":"KERNCO-15CAP-00000-009DW","geoLocation":{"lat":35.375968,"lng":-119.166542}},{"address":"1928 WEEDPATCH HY BAKERSFIELD, CA","kw":4.24,"permitId":"KERNCO-15CAP-00000-009FL","geoLocation":{"lat":35.337472,"lng":-118.914744}},{"address":"22717 WOODFORD TEHACHAPI RD TEHACHAPI, CA","kw":2.12,"permitId":"KERNCO-15CAP-00000-009DY","geoLocation":{"lat":35.1513846,"lng":-118.494739}},{"address":"3624 KINGSLEY CT ROSAMOND, CA","kw":3.64,"permitId":"KERNCO-15CAP-00000-009EF"},{"address":"14103 SANTA FE CT KERN COUNTY, CA","kw":11.92,"permitId":"KERNCO-15CAP-00000-009EP"},{"address":"8017 BLACK JACK RD INYOKERN, CA","kw":5.49,"permitId":"KERNCO-15CAP-00000-009EG"},{"address":"2701 HOLLADAY AV BAKERSFIELD, CA","kw":4.3,"permitId":"KERNCO-15CAP-00000-009ED"},{"address":"2007 DEERFIELD ST BAKERSFIELD, CA","kw":8.1,"permitId":"KERNCO-15CAP-00000-009EE"},{"address":"6201 OLIVE DR BAKERSFIELD, CA","kw":7.68,"permitId":"KERNCO-15CAP-00000-009EQ"},{"address":"30705 POND RD MCFARLAND, CA","kw":10.37,"permitId":"KERNCO-15CAP-00000-009CJ"},{"address":"4100 GRANADA AV BAKERSFIELD, CA","kw":8.3,"permitId":"KERNCO-15CAP-00000-009CL"},{"address":"16223 SALMON BAY CT KERN COUNTY, CA","kw":10.1,"permitId":"KERNCO-15CAP-00000-009CZ","geoLocation":{"lat":35.387345,"lng":-119.182568}},{"address":"12406 TANK FARM RD DUSTIN ACRES, CA","kw":8.1,"permitId":"KERNCO-15CAP-00000-009DA","geoLocation":{"lat":35.218993,"lng":-119.393316}},{"address":"509 WHITE LN BAKERSFIELD, CA","kw":1.9,"permitId":"KERNCO-15CAP-00000-009CX"},{"address":"26746 HAMPTON RD BORON, CA","kw":7.56,"permitId":"KERNCO-15CAP-00000-009CM"},{"address":"4215 EARL AV BAKERSFIELD, CA","kw":4.5,"permitId":"KERNCO-15CAP-00000-009CY","geoLocation":{"lat":35.3676419,"lng":-118.937223}},{"address":"13601 MORALES CT BAKERSFIELD, CA","kw":14.7,"permitId":"KERNCO-15CAP-00000-009DL","geoLocation":{"lat":35.389328,"lng":-119.153354}},{"address":"7104 ARLETA AV BAKERSFIELD, CA","kw":7.4,"permitId":"KERNCO-15CAP-00000-009DM","geoLocation":{"lat":35.413707,"lng":-119.081694}},{"address":"9701 HARVEY CT BAKERSFIELD, CA","kw":10.865,"permitId":"KERNCO-15CAP-00000-009B6","geoLocation":{"lat":35.370964,"lng":-119.110296}},{"address":"2701 WORTHINGTON AV BAKERSFIELD, CA","kw":5.6,"permitId":"KERNCO-15CAP-00000-009BG","geoLocation":{"lat":35.430803,"lng":-119.019421}},{"address":"19586 CHERRY LN TEHACHAPI, CA","kw":8.2,"permitId":"KERNCO-15CAP-00000-009DP","geoLocation":{"lat":35.119819,"lng":-118.478349}},{"address":"3312 OLYMPIC DR BAKERSFIELD, CA","kw":5,"permitId":"KERNCO-15CAP-00000-009DQ","geoLocation":{"lat":35.43688900000001,"lng":-119.015714}},{"address":"1004 MONIQUE AV BAKERSFIELD, CA","kw":8.8,"permitId":"KERNCO-15CAP-00000-009BK","geoLocation":{"lat":35.276783,"lng":-119.015824}},{"address":"7306 PEMBROKE AV BAKERSFIELD, CA","kw":9.9,"permitId":"KERNCO-15CAP-00000-009DO","geoLocation":{"lat":35.411493,"lng":-119.083887}},{"address":"8426 TUCANA AV BAKERSFIELD, CA","kw":6.095,"permitId":"KERNCO-15CAP-00000-009B9","geoLocation":{"lat":35.373586,"lng":-118.910202}},{"address":"3710 BRAE-BURN DR BAKERSFIELD, CA","kw":20.405,"permitId":"KERNCO-15CAP-00000-009BA","geoLocation":{"lat":35.38667,"lng":-118.941809}},{"address":"16701 PALM ST BAKERSFIELD, CA","kw":8.48,"permitId":"KERNCO-15CAP-00000-009B8","geoLocation":{"lat":35.375781,"lng":-119.187548}},{"address":"9401 GREENACRES DR BAKERSFIELD, CA","kw":11.2,"permitId":"KERNCO-15CAP-00000-009BL","geoLocation":{"lat":35.381301,"lng":-119.105697}},{"address":"2013 OLD FARM RD BAKERSFIELD, CA","kw":9.1,"permitId":"KERNCO-15CAP-00000-0099X","geoLocation":{"lat":35.378199,"lng":-119.137223}},{"address":"16420 JOHNSON RD BAKERSFIELD, CA","kw":15.6,"permitId":"KERNCO-15CAP-00000-0099W","geoLocation":{"lat":35.362143,"lng":-119.184606}},{"address":"15338 SEQUOIA GROVE AV BAKERSFIELD, CA","kw":11.7,"permitId":"KERNCO-15CAP-00000-009A3"},{"address":"5412 JUDD ST BUTTONWILLOW, CA","kw":7.8,"permitId":"KERNCO-15CAP-00000-009AX"},{"address":"1838 RENFRO RD BAKERSFIELD, CA","kw":12.4,"permitId":"KERNCO-15CAP-00000-009A4"},{"address":"64 GARDEN DR BAKERSFIELD, CA","kw":5.5,"permitId":"KERNCO-15CAP-00000-009A5"},{"address":"457 ACACIA AV BAKERSFIELD, CA","kw":11.1,"permitId":"KERNCO-15CAP-00000-009A8"},{"address":"820 PIERCE ST TAFT, CA","kw":9.8,"permitId":"KERNCO-15CAP-00000-009AB"},{"address":"13441 CASCADE CT BAKERSFIELD, CA","kw":4.5,"permitId":"KERNCO-15CAP-00000-009BU","geoLocation":{"lat":35.4007,"lng":-119.151899}},{"address":"1641 HOUGHTON RD BAKERSFIELD, CA","kw":10.2,"permitId":"KERNCO-15CAP-00000-0099U"},{"address":"7635 JENICA ST BAKERSFIELD, CA","kw":4.57,"permitId":"KERNCO-15CAP-00000-009C4","geoLocation":{"lat":35.429187,"lng":-119.139885}},{"address":"15825 CALISTOGA AV BAKERSFIELD, CA","kw":13.7,"permitId":"KERNCO-15CAP-00000-009A1","geoLocation":{"lat":35.367927,"lng":-119.178139}},{"address":"4753 SUNBOW  ROSAMOND, CA","kw":4.24,"permitId":"KERNCO-15CAP-00000-009C6"},{"address":"209 DORRANCE ST BAKERSFIELD, CA","kw":4.25,"permitId":"KERNCO-15CAP-00000-009AC"},{"address":"1655 GREELEY RD BAKERSFIELD, CA","kw":9.1,"permitId":"KERNCO-15CAP-00000-0098E"},{"address":"17849 LEONARD AV SHAFTER, CA","kw":11.7,"permitId":"KERNCO-15CAP-00000-0098W","geoLocation":{"lat":35.5037312,"lng":-119.3856341}},{"address":"108 WOODLANDS MEADOW CT BAKERSFIELD, CA","kw":9.6,"permitId":"KERNCO-15CAP-00000-0099G","geoLocation":{"lat":35.440985,"lng":-119.022395}},{"address":"21400 WESTWOOD BL TEHACHAPI, CA","kw":5.6,"permitId":"KERNCO-15CAP-00000-0099M","geoLocation":{"lat":35.12980599999999,"lng":-118.48171}},{"address":"156 JAVIS  RIDGECREST, CA","kw":6.75,"permitId":"KERNCO-15CAP-00000-0099C","geoLocation":{"lat":35.579071,"lng":-117.668463}},{"address":"12309 OLD TOWN RD BAKERSFIELD, CA","kw":9.1,"permitId":"KERNCO-15CAP-00000-0099N","geoLocation":{"lat":35.372901,"lng":-119.139585}},{"address":"2021 JASON ST BAKERSFIELD, CA","kw":8.5,"permitId":"KERNCO-15CAP-00000-0099I","geoLocation":{"lat":35.377567,"lng":-119.126462}},{"address":"6901 UPLANDS OF THE KERN DR BAKERSFIELD, CA","kw":10.7,"permitId":"KERNCO-15CAP-00000-0099L","geoLocation":{"lat":35.44829,"lng":-118.927216}},{"address":"28345 GARDNER FIELD RD TAFT, CA","kw":18.3,"permitId":"KERNCO-15CAP-00000-0099F","geoLocation":{"lat":35.128211,"lng":-119.373374}},{"address":"5500 COLLEGE AV BAKERSFIELD, CA","kw":6.2,"permitId":"KERNCO-15CAP-00000-0099H","geoLocation":{"lat":35.383639,"lng":-118.942394}},{"address":"2804 CARRIAGE ST BAKERSFIELD, CA","kw":7.2,"permitId":"KERNCO-15CAP-00000-0099O","geoLocation":{"lat":35.385468,"lng":-119.19947}},{"address":"522 TULIP ST BAKERSFIELD, CA","kw":2.86,"permitId":"KERNCO-15CAP-00000-00970","geoLocation":{"lat":35.367526,"lng":-118.94165}},{"address":"811 CRANE ST BAKERSFIELD, CA","kw":2.12,"permitId":"KERNCO-15CAP-00000-00973","geoLocation":{"lat":35.371267,"lng":-118.937349}},{"address":"20580 TIFFANY CI TEHACHAPI, CA","kw":6.89,"permitId":"KERNCO-15CAP-00000-00974","geoLocation":{"lat":35.1321877,"lng":-118.4489739}},{"address":"410 SPRINGER ST BAKERSFIELD, CA","kw":2.12,"permitId":"KERNCO-15CAP-00000-00972","geoLocation":{"lat":35.365979,"lng":-118.934989}},{"address":"27000 OAKFLAT DR TEHACHAPI, CA","kw":11.925,"permitId":"KERNCO-15CAP-00000-00975","geoLocation":{"lat":35.16022100000001,"lng":-118.609945}},{"address":"100 HICKERSON DR BAKERSFIELD, CA","kw":10.335,"permitId":"KERNCO-15CAP-00000-00976","geoLocation":{"lat":35.404736,"lng":-119.03395}},{"address":"21221 SANTA BARBARA DR TEHACHAPI, CA","kw":5.83,"permitId":"KERNCO-15CAP-00000-0097B","geoLocation":{"lat":35.128338,"lng":-118.492277}},{"address":"2937 DESERT  ROSAMOND, CA","kw":5.2,"permitId":"KERNCO-15CAP-00000-0097D","geoLocation":{"lat":34.863085,"lng":-118.166026}},{"address":"800 ANN ARBOR DR BAKERSFIELD, CA","kw":6.095,"permitId":"KERNCO-15CAP-00000-00978","geoLocation":{"lat":35.422585,"lng":-119.036285}},{"address":"21300 PALOMINO ST TEHACHAPI, CA","kw":6.89,"permitId":"KERNCO-15CAP-00000-00979","geoLocation":{"lat":35.145107,"lng":-118.508623}},{"address":"6107 CRESTMORE ST BAKERSFIELD, CA","kw":8.215,"permitId":"KERNCO-15CAP-00000-0097F","geoLocation":{"lat":35.415294,"lng":-119.07869}},{"address":"9721 PAR ST BAKERSFIELD, CA","kw":5.565,"permitId":"KERNCO-15CAP-00000-0097E","geoLocation":{"lat":35.266198,"lng":-119.108485}},{"address":"3408 FIREBUSH AV ROSAMOND, CA","kw":4.42,"permitId":"KERNCO-15CAP-00000-0097G","geoLocation":{"lat":34.851377,"lng":-118.19219}},{"address":"7760 SOLO RD INYOKERN, CA","kw":7.8,"permitId":"KERNCO-15CAP-00000-0097T","geoLocation":{"lat":35.69686,"lng":-117.840417}},{"address":"34312 7TH STANDARD RD BAKERSFIELD, CA","kw":15.7,"permitId":"KERNCO-15CAP-00000-0097X","geoLocation":{"lat":35.441908,"lng":-119.108273}},{"address":"1025 NATHAN ST BAKERSFIELD, CA","kw":29.4,"permitId":"KERNCO-15CAP-00000-0097Y","geoLocation":{"lat":35.36641,"lng":-118.850783}},{"address":"1818 KENTUCKY ST BAKERSFIELD, CA","kw":1.855,"permitId":"KERNCO-15CAP-00000-00949","geoLocation":{"lat":35.374829,"lng":-118.974057}},{"address":"27201 SHUTOUT PL TEHACHAPI, CA","kw":3.975,"permitId":"KERNCO-15CAP-00000-0094F"},{"address":"2209 EDGEWOOD ST BAKERSFIELD, CA","kw":5.83,"permitId":"KERNCO-15CAP-00000-0094D","geoLocation":{"lat":35.378223,"lng":-118.927768}},{"address":"9908 VELMA AV LAMONT, CA","kw":2.65,"permitId":"KERNCO-15CAP-00000-0094A","geoLocation":{"lat":35.264755,"lng":-118.9134525}},{"address":"4916 GREENBRIER AV BAKERSFIELD, CA","kw":7.95,"permitId":"KERNCO-15CAP-00000-0094E","geoLocation":{"lat":35.384277,"lng":-118.948507}},{"address":"30140 GREENWATER DR TEHACHAPI, CA","kw":6.625,"permitId":"KERNCO-15CAP-00000-0094C"},{"address":"116 BEDFORD WY BAKERSFIELD, CA","kw":9.01,"permitId":"KERNCO-15CAP-00000-0094N"},{"address":"27435 HIALEAH DR TEHACHAPI, CA","kw":9.01,"permitId":"KERNCO-15CAP-00000-0094G"},{"address":"28221 DEERTRAIL DR TEHACHAPI, CA","kw":3.06,"permitId":"KERNCO-15CAP-00000-0094L"},{"address":"446 BRITE MEADOW CT BAKERSFIELD, CA","kw":6.095,"permitId":"KERNCO-15CAP-00000-0094M"},{"address":"330 MISTY MEADOW DR BAKERSFIELD, CA","kw":3.975,"permitId":"KERNCO-15CAP-00000-0094I"},{"address":"2022 LAKE ST BAKERSFIELD, CA","kw":2.12,"permitId":"KERNCO-15CAP-00000-0094H"},{"address":"1905 MARGO LN BAKERSFIELD, CA","kw":3.71,"permitId":"KERNCO-15CAP-00000-0094O"},{"address":"916 ORANGE PETAL ST BAKERSFIELD, CA","kw":2.6,"permitId":"KERNCO-15CAP-00000-0095O","geoLocation":{"lat":35.366797,"lng":-118.91182}},{"address":"17628 FALLING CREEK AV BAKERSFIELD, CA","kw":9.12,"permitId":"KERNCO-15CAP-00000-0095H"},{"address":"8903 LANGLEY -AKA ELZWRTH RD BAKERSFIELD, CA","kw":13.2,"permitId":"KERNCO-15CAP-00000-0093G","geoLocation":{"lat":35.3732921,"lng":-119.0187125}},{"address":"2706 PEERLESS AV BAKERSFIELD, CA","kw":4.48,"permitId":"KERNCO-15CAP-00000-0093D","geoLocation":{"lat":35.43126,"lng":-119.019823}},{"address":"1209 MC KINLEY AV BAKERSFIELD, CA","kw":5.5,"permitId":"KERNCO-15CAP-00000-0093I","geoLocation":{"lat":35.41399,"lng":-119.046458}},{"address":"1908 LESTER ST BAKERSFIELD, CA","kw":3.42,"permitId":"KERNCO-15CAP-00000-0093P","geoLocation":{"lat":35.348775,"lng":-119.023885}},{"address":"15420 AZALEA SPRINGS CT BAKERSFIELD, CA","kw":14.2,"permitId":"KERNCO-15CAP-00000-0093S","geoLocation":{"lat":35.366392,"lng":-119.173521}},{"address":"16320 PALM AV BAKERSFIELD, CA","kw":6.82,"permitId":"KERNCO-15CAP-00000-0093W","geoLocation":{"lat":35.376728,"lng":-119.183831}},{"address":"2509 TALISMAN DR BAKERSFIELD, CA","kw":9.62,"permitId":"KERNCO-15CAP-00000-00943","geoLocation":{"lat":35.3407089,"lng":-119.030825}},{"address":"2200 MATTHEW AV ROSAMOND, CA","kw":2.915,"permitId":"KERNCO-15CAP-00000-0091T","geoLocation":{"lat":34.856025,"lng":-118.171235}},{"address":"6670 SHAFTER RD BAKERSFIELD, CA","kw":12,"permitId":"KERNCO-15CAP-00000-00901","geoLocation":{"lat":35.224333,"lng":-119.076453}},{"address":"2012 DEL AMO WY BAKERSFIELD, CA","kw":2.85,"permitId":"KERNCO-15CAP-00000-008ZP","geoLocation":{"lat":35.391952,"lng":-118.968577}},{"address":"28000 BURNING TREE DR TEHACHAPI, CA","kw":8.5,"permitId":"KERNCO-15CAP-00000-008YH","geoLocation":{"lat":35.0879497,"lng":-118.6323718}},{"address":"4719 CARR RD INYOKERN, CA","kw":4.16,"permitId":"KERNCO-15CAP-00000-008ZM","geoLocation":{"lat":35.7075852,"lng":-117.8348271}},{"address":"28344 7TH ST WASCO, CA","kw":11.4,"permitId":"KERNCO-15CAP-00000-0090J","geoLocation":{"lat":35.5946445,"lng":-119.3673661}},{"address":"3716 FERNWOOD ST ROSAMOND, CA","kw":3.85,"permitId":"KERNCO-15CAP-00000-0091P","geoLocation":{"lat":34.87562,"lng":-118.151094}},{"address":"7016 NOAH AV BAKERSFIELD, CA","kw":7.76,"permitId":"KERNCO-15CAP-00000-0092X","geoLocation":{"lat":35.4245469,"lng":-119.080541}},{"address":"19405 WILDWOOD RD BUTTONWILLOW, CA","kw":18.3,"permitId":"KERNCO-15CAP-00000-00900","geoLocation":{"lat":35.4495196,"lng":-119.4395573}},{"address":"104 TYLER ST TAFT, CA","kw":4.42,"permitId":"KERNCO-15CAP-00000-008YJ","geoLocation":{"lat":35.151838,"lng":-119.457164}},{"address":"1133 OAKWOOD LN ROSAMOND, CA","kw":4.505,"permitId":"KERNCO-15CAP-00000-008YY","geoLocation":{"lat":34.87438,"lng":-118.151697}},{"address":"7116 CHERRYWOOD AV BAKERSFIELD, CA","kw":8.48,"permitId":"KERNCO-15CAP-00000-008Z0"},{"address":"21251 PEGASUS ST TEHACHAPI, CA","kw":11.395,"permitId":"KERNCO-15CAP-00000-008YZ"},{"address":"3115 LA CRESTA DR BAKERSFIELD, CA","kw":9.8,"permitId":"KERNCO-15CAP-00000-008Z8"},{"address":"104 BRIGHTON WY BAKERSFIELD, CA","kw":4.505,"permitId":"KERNCO-15CAP-00000-008Z1","geoLocation":{"lat":35.43005,"lng":-119.02061}},{"address":"6612 PALM TREE CI BAKERSFIELD, CA","kw":9.6,"permitId":"KERNCO-15CAP-00000-008ZA"},{"address":"1211 MC KINLEY AV BAKERSFIELD, CA","kw":5.56,"permitId":"KERNCO-15CAP-00000-008ZB"},{"address":"17288 EDWARD JOEL WY SHAFTER, CA","kw":6.8,"permitId":"KERNCO-15CAP-00000-008Z9"},{"address":"710 D ST TAFT, CA","kw":6.5,"permitId":"KERNCO-15CAP-00000-008WQ"},{"address":"406 6TH AV TAFT, CA","kw":4.4,"permitId":"KERNCO-15CAP-00000-008WS"},{"address":"234 EL CIELO DR BAKERSFIELD, CA","kw":18.6,"permitId":"KERNCO-15CAP-00000-008X2"},{"address":"246 FRANCIS ST BAKERSFIELD, CA","kw":3.12,"permitId":"KERNCO-15CAP-00000-008X4","geoLocation":{"lat":35.424476,"lng":-119.025473}},{"address":"1001 LORENE AV BAKERSFIELD, CA","kw":7,"permitId":"KERNCO-15CAP-00000-008X9"},{"address":"19226 CLARISSE ST BAKERSFIELD, CA","kw":12.4,"permitId":"KERNCO-15CAP-00000-008XR","geoLocation":{"lat":35.380725,"lng":-119.215742}},{"address":"15503 MARTY AV BAKERSFIELD, CA","kw":7.95,"permitId":"KERNCO-15CAP-00000-008Y3","geoLocation":{"lat":35.3804724,"lng":-119.174607}},{"address":"9213 EUCALYPTUS DR BAKERSFIELD, CA","kw":6.625,"permitId":"KERNCO-15CAP-00000-008Y0","geoLocation":{"lat":35.3651304,"lng":-118.901773}},{"address":"5555 VISTA DEL RIO CT BAKERSFIELD, CA","kw":13,"permitId":"KERNCO-15CAP-00000-008XS","geoLocation":{"lat":35.441873,"lng":-118.943741}},{"address":"10106 LONON AV BAKERSFIELD, CA","kw":9.805,"permitId":"KERNCO-15CAP-00000-008Y2","geoLocation":{"lat":35.393151,"lng":-119.114932}},{"address":"14918 REDWOOD VALLEY DR BAKERSFIELD, CA","kw":13.7,"permitId":"KERNCO-15CAP-00000-008XT","geoLocation":{"lat":35.388461,"lng":-119.16974}},{"address":"5906 STACEY ST BAKERSFIELD, CA","kw":10.07,"permitId":"KERNCO-15CAP-00000-008VF","geoLocation":{"lat":35.301054,"lng":-119.049119}},{"address":"204 HUGHES AV BAKERSFIELD, CA","kw":4.77,"permitId":"KERNCO-15CAP-00000-008VG","geoLocation":{"lat":35.415314,"lng":-119.018366}},{"address":"202 FILLMORE ST TAFT, CA","kw":3.71,"permitId":"KERNCO-15CAP-00000-008VB","geoLocation":{"lat":35.153227,"lng":-119.460994}},{"address":"30451 CONDOR PL TEHACHAPI, CA","kw":12.72,"permitId":"KERNCO-15CAP-00000-008VI","geoLocation":{"lat":35.1016944,"lng":-118.6762162}},{"address":"21508 COUNTRY CLUB DR TEHACHAPI, CA","kw":3.975,"permitId":"KERNCO-15CAP-00000-008VH","geoLocation":{"lat":35.142055,"lng":-118.512719}},{"address":"10812 MICHELE AV BAKERSFIELD, CA","kw":7.155,"permitId":"KERNCO-15CAP-00000-008VJ","geoLocation":{"lat":35.3940651,"lng":-119.1228827}},{"address":"14767 STARTHISTLE CT KERN COUNTY, CA","kw":9.54,"permitId":"KERNCO-15CAP-00000-008VK","geoLocation":{"lat":35.394518,"lng":-119.166751}},{"address":"8424 ROSEWOOD AV BAKERSFIELD, CA","kw":2,"permitId":"KERNCO-15CAP-00000-008VN","geoLocation":{"lat":35.372834,"lng":-118.91025}},{"address":"7305 ANGELA AV BAKERSFIELD, CA","kw":5.25,"permitId":"KERNCO-15CAP-00000-008VQ","geoLocation":{"lat":35.414872,"lng":-119.083945}},{"address":"23401 SAN JUAN DR TEHACHAPI, CA","kw":16.8,"permitId":"KERNCO-15CAP-00000-008VT","geoLocation":{"lat":35.156068,"lng":-118.620185}},{"address":"3120 PHAIRFIELD ST BAKERSFIELD, CA","kw":15,"permitId":"KERNCO-15CAP-00000-008VY","geoLocation":{"lat":35.388388,"lng":-119.149509}},{"address":"2204 TANGERINE ST BAKERSFIELD, CA","kw":13,"permitId":"KERNCO-15CAP-00000-008VZ","geoLocation":{"lat":35.378063,"lng":-118.927399}},{"address":"2351 EMMY DR BAKERSFIELD, CA","kw":9.1,"permitId":"KERNCO-15CAP-00000-008W2","geoLocation":{"lat":35.333613,"lng":-118.91254}},{"address":"9609 OAK HILLS AV BAKERSFIELD, CA","kw":11.7,"permitId":"KERNCO-15CAP-00000-008W1","geoLocation":{"lat":35.421081,"lng":-119.109612}},{"address":"1009 CLINTON AV BAKERSFIELD, CA","kw":2.385,"permitId":"KERNCO-15CAP-00000-008TQ","geoLocation":{"lat":35.3730411,"lng":-118.9238832}},{"address":"17101 JOHNSON RD BAKERSFIELD, CA","kw":7.84,"permitId":"KERNCO-15CAP-00000-008W7","geoLocation":{"lat":35.359316,"lng":-119.192126}},{"address":"2612 CHESTER AV BAKERSFIELD, CA","kw":3.71,"permitId":"KERNCO-15CAP-00000-008TR","geoLocation":{"lat":35.38323099999999,"lng":-119.0186857}},{"address":"508 PETUNIA ST BAKERSFIELD, CA","kw":4.24,"permitId":"KERNCO-15CAP-00000-008TT","geoLocation":{"lat":35.3670789,"lng":-118.943564}},{"address":"5704 HILLBURN RD BAKERSFIELD, CA","kw":6.89,"permitId":"KERNCO-15CAP-00000-008TS","geoLocation":{"lat":35.379905,"lng":-118.939524}},{"address":"209 CEDAR ST FRAZIER PARK, CA","kw":2.915,"permitId":"KERNCO-15CAP-00000-008TW","geoLocation":{"lat":34.8156869,"lng":-119.00141}},{"address":"27700 KELSO DR TEHACHAPI, CA","kw":7.155,"permitId":"KERNCO-15CAP-00000-008TU"},{"address":"217 CURNOW RD BAKERSFIELD, CA","kw":7.42,"permitId":"KERNCO-15CAP-00000-008TV","geoLocation":{"lat":35.259015,"lng":-119.004557}},{"address":"6804 MIGNONETTE ST BAKERSFIELD, CA","kw":10.14,"permitId":"KERNCO-15CAP-00000-008SL"},{"address":"14040 ROUND MOUNTAIN RD BAKERSFIELD, CA","kw":8.1,"permitId":"KERNCO-15CAP-00000-008SE","geoLocation":{"lat":35.441306,"lng":-118.890948}},{"address":"3640 CAGEL ST ROSAMOND, CA","kw":6.1,"permitId":"KERNCO-15CAP-00000-008SF","geoLocation":{"lat":34.873266,"lng":-118.226624}},{"address":"3229 BELLE TERRACE  BAKERSFIELD, CA","kw":10.9,"permitId":"KERNCO-15CAP-00000-008SW"},{"address":"106 BRIGHTON WY BAKERSFIELD, CA","kw":4.5,"permitId":"KERNCO-15CAP-00000-008SX"},{"address":"440 DEL MAR DR BAKERSFIELD, CA","kw":8.4,"permitId":"KERNCO-15CAP-00000-008RF"},{"address":"3722 FLICKER RD MOUNTAIN MESA, CA","kw":3.38,"permitId":"KERNCO-15CAP-00000-008R8"},{"address":"21212 MOUNTAIN DR TEHACHAPI, CA","kw":2.85,"permitId":"KERNCO-15CAP-00000-008RW"},{"address":"29860 PINEDALE DR TEHACHAPI, CA","kw":5.5,"permitId":"KERNCO-15CAP-00000-008RN"},{"address":"8440 WOODLAND LN MOJAVE, CA","kw":7.8,"permitId":"KERNCO-15CAP-00000-008RR"},{"address":"14604 HENDERSON AV BAKERSFIELD, CA","kw":4.56,"permitId":"KERNCO-15CAP-00000-008RX"},{"address":"13401 TABLE ROCK AV BAKERSFIELD, CA","kw":8.23,"permitId":"KERNCO-15CAP-00000-008S0","geoLocation":{"lat":35.398342,"lng":-119.151275}},{"address":"16251 BARTON LN BAKERSFIELD, CA","kw":8.54,"permitId":"KERNCO-15CAP-00000-008S1","geoLocation":{"lat":35.370766,"lng":-119.182849}},{"address":"159 GARDEN DR BAKERSFIELD, CA","kw":1.71,"permitId":"KERNCO-15CAP-00000-008RZ","geoLocation":{"lat":35.305587,"lng":-118.997347}},{"address":"404 DRY MEADOW LN BAKERSFIELD, CA","kw":8.745,"permitId":"KERNCO-15CAP-00000-008S9","geoLocation":{"lat":35.434071,"lng":-119.0282}},{"address":"1408 SHEILA ST BAKERSFIELD, CA","kw":7.6,"permitId":"KERNCO-15CAP-00000-008Q2","geoLocation":{"lat":35.371266,"lng":-118.911127}},{"address":"2300 FLINT DR BAKERSFIELD, CA","kw":7.95,"permitId":"KERNCO-15CAP-00000-008SA","geoLocation":{"lat":35.388335,"lng":-118.954948}},{"address":"3541 GOLD STONE LN ROSAMOND, CA","kw":5,"permitId":"KERNCO-15CAP-00000-008Q5","geoLocation":{"lat":34.87236499999999,"lng":-118.184569}},{"address":"7472 CYPRESS AV ROSAMOND, CA","kw":7.6,"permitId":"KERNCO-15CAP-00000-008Q4","geoLocation":{"lat":34.8233,"lng":-118.263911}},{"address":"760 CAMPBELL ST RIDGECREST, CA","kw":10.24,"permitId":"KERNCO-15CAP-00000-008R0","geoLocation":{"lat":35.634846,"lng":-117.71163}},{"address":"3142 EDWARDS AV ROSAMOND, CA","kw":3.9,"permitId":"KERNCO-15CAP-00000-008QA","geoLocation":{"lat":34.865597,"lng":-118.188141}},{"address":"16613 DEL NORTE DR MOJAVE, CA","kw":5.3,"permitId":"KERNCO-15CAP-00000-008QU","geoLocation":{"lat":35.062657,"lng":-118.196116}},{"address":"16001 BLACK HAWK AV BAKERSFIELD, CA","kw":12.8,"permitId":"KERNCO-15CAP-00000-008PD","geoLocation":{"lat":35.358367,"lng":-119.179825}},{"address":"3604 TONY ST BAKERSFIELD, CA","kw":8.91,"permitId":"KERNCO-15CAP-00000-008PE","geoLocation":{"lat":35.367225,"lng":-118.936629}},{"address":"15075 HENDERSON AV BAKERSFIELD, CA","kw":18.3,"permitId":"KERNCO-15CAP-00000-008PU","geoLocation":{"lat":35.3798458,"lng":-119.1714192}},{"address":"4008 HARRIS RD BAKERSFIELD, CA","kw":3.64,"permitId":"KERNCO-15CAP-00000-008O4","geoLocation":{"lat":35.303628,"lng":-119.047012}},{"address":"1814 LUCKY ST BAKERSFIELD, CA","kw":5.49,"permitId":"KERNCO-15CAP-00000-008O6","geoLocation":{"lat":35.366104,"lng":-118.975011}},{"address":"2034 TORREY DR BAKERSFIELD, CA","kw":9.8,"permitId":"KERNCO-15CAP-00000-008OC","geoLocation":{"lat":35.378941,"lng":-119.123226}},{"address":"7901 ANGELA AV BAKERSFIELD, CA","kw":7.2,"permitId":"KERNCO-15CAP-00000-008OB","geoLocation":{"lat":35.4153477,"lng":-119.0903238}},{"address":"9202 60TH STREET WEST  MOJAVE, CA","kw":3.9,"permitId":"KERNCO-15CAP-00000-008OZ","geoLocation":{"lat":34.953941,"lng":-118.237628}},{"address":"15727 OPUS ONE DR BAKERSFIELD, CA","kw":7.2,"permitId":"KERNCO-15CAP-00000-008OA","geoLocation":{"lat":35.373657,"lng":-119.177027}},{"address":"2346 POPLAR ST  ROSAMOND, CA","kw":6,"permitId":"KERNCO-15CAP-00000-008P1","geoLocation":{"lat":34.860735,"lng":-118.173014}},{"address":"3506 ASLIN ST BAKERSFIELD, CA","kw":8.1,"permitId":"KERNCO-15CAP-00000-008P4","geoLocation":{"lat":35.389908,"lng":-119.124762}},{"address":"2411 FAIRFAX RD BAKERSFIELD, CA","kw":2.12,"permitId":"KERNCO-15CAP-00000-008LZ","geoLocation":{"lat":35.379772,"lng":-118.931587}},{"address":"106 MONETA AV BAKERSFIELD, CA","kw":3.975,"permitId":"KERNCO-15CAP-00000-008LY","geoLocation":{"lat":35.409822,"lng":-119.021792}},{"address":"3005 LA CASA PL BAKERSFIELD, CA","kw":6.36,"permitId":"KERNCO-15CAP-00000-008M0","geoLocation":{"lat":35.38098799999999,"lng":-118.943503}},{"address":"539 MEADOW RISE CT BAKERSFIELD, CA","kw":6.625,"permitId":"KERNCO-15CAP-00000-008M3","geoLocation":{"lat":35.437557,"lng":-119.031676}},{"address":"761 GREENWOOD MEADOW LN BAKERSFIELD, CA","kw":5.3,"permitId":"KERNCO-15CAP-00000-008M4"},{"address":"2201 VALENCIA DR BAKERSFIELD, CA","kw":4.77,"permitId":"KERNCO-15CAP-00000-008M1","geoLocation":{"lat":35.37785,"lng":-118.924952}},{"address":"4414 ALTA VERDE AV BAKERSFIELD, CA","kw":3.975,"permitId":"KERNCO-15CAP-00000-008M5"},{"address":"408 OSWELL ST BAKERSFIELD, CA","kw":5.565,"permitId":"KERNCO-15CAP-00000-008M9","geoLocation":{"lat":35.36185100000001,"lng":-118.950162}},{"address":"1211 LAITY CT BAKERSFIELD, CA","kw":10.335,"permitId":"KERNCO-15CAP-00000-008M7","geoLocation":{"lat":35.369538,"lng":-118.904041}},{"address":"18489 BAYLESS ST SHAFTER, CA","kw":5.3,"permitId":"KERNCO-15CAP-00000-008MA","geoLocation":{"lat":35.4790009,"lng":-119.281615}},{"address":"740 CIRCLE DR LEBEC, CA","kw":2.5,"permitId":"KERNCO-15CAP-00000-008MZ"},{"address":"7304 CHERRYWOOD AV BAKERSFIELD, CA","kw":5.3,"permitId":"KERNCO-15CAP-00000-008M8"},{"address":"3430 ARROWHEAD CT ROSAMOND, CA","kw":5.2,"permitId":"KERNCO-15CAP-00000-008MN"},{"address":"1443 FELSPAR AV RIDGECREST, CA","kw":6.84,"permitId":"KERNCO-15CAP-00000-008L2"},{"address":"1320 GATEWAY BL RIDGECREST, CA","kw":5.1,"permitId":"KERNCO-15CAP-00000-008L4"},{"address":"507 PRICE ST BAKERSFIELD, CA","kw":5.3,"permitId":"KERNCO-15CAP-00000-008L6","geoLocation":{"lat":35.304692,"lng":-118.993706}},{"address":"5112 WASCO WY BUTTONWILLOW, CA","kw":13.44,"permitId":"KERNCO-15CAP-00000-008L8","geoLocation":{"lat":35.3531414,"lng":-119.4476083}},{"address":"3363 PUMA AV ROSAMOND, CA","kw":5.23,"permitId":"KERNCO-15CAP-00000-008LH","geoLocation":{"lat":34.86524,"lng":-118.1913879}},{"address":"3427 PUMA AV ROSAMOND, CA","kw":6.54,"permitId":"KERNCO-15CAP-00000-008LF"},{"address":"14309 ALLEN AV WELDON, CA","kw":10.08,"permitId":"KERNCO-15CAP-00000-008LC","geoLocation":{"lat":35.654683,"lng":-118.266463}},{"address":"3427 WHISPER SANDS AV ROSAMOND, CA","kw":3.445,"permitId":"KERNCO-15CAP-00000-008LI"},{"address":"3549 SILVER SPUR CT ROSAMOND, CA","kw":7.15,"permitId":"KERNCO-15CAP-00000-008LL"},{"address":"1801 COUNTRY CLUB DR BAKERSFIELD, CA","kw":7.02,"permitId":"KERNCO-15CAP-00000-008LK","geoLocation":{"lat":35.3833709,"lng":-118.952735}},{"address":"112 CAPISTRANO CT BAKERSFIELD, CA","kw":11.97,"permitId":"KERNCO-15CAP-00000-008K7","geoLocation":{"lat":35.356072,"lng":-119.147272}},{"address":"4037 MOSS ST BAKERSFIELD, CA","kw":6.5,"permitId":"KERNCO-15CAP-00000-008K1","geoLocation":{"lat":35.396693,"lng":-119.123128}},{"address":"2500 MIMOSA DR BAKERSFIELD, CA","kw":7.42,"permitId":"KERNCO-15CAP-00000-008JK","geoLocation":{"lat":35.428902,"lng":-119.03447}},{"address":"7204 PALM TREE CI BAKERSFIELD, CA","kw":12.2,"permitId":"KERNCO-15CAP-00000-008K5","geoLocation":{"lat":35.421888,"lng":-119.09022}},{"address":"4201 RENEE AV BAKERSFIELD, CA","kw":10.14,"permitId":"KERNCO-15CAP-00000-008I6","geoLocation":{"lat":35.29989,"lng":-119.049026}},{"address":"9 SILVER MINE DR KERNVILLE, CA","kw":5.98,"permitId":"KERNCO-15CAP-00000-008I9","geoLocation":{"lat":35.7545556,"lng":-118.4279966}},{"address":"25819 CHERRY HILL DR BORON, CA","kw":10.6,"permitId":"KERNCO-15CAP-00000-008LN","geoLocation":{"lat":35.012223,"lng":-117.671483}},{"address":"4016 HARRIS RD BAKERSFIELD, CA","kw":4.68,"permitId":"KERNCO-15CAP-00000-008LQ","geoLocation":{"lat":35.303629,"lng":-119.047272}},{"address":"3627 CRESCENT MEADOW DR BAKERSFIELD, CA","kw":4.27,"permitId":"KERNCO-15CAP-00000-008KC","geoLocation":{"lat":35.4396689,"lng":-119.0243184}},{"address":"3709 PIEDMONT AV BAKERSFIELD, CA","kw":11.9,"permitId":"KERNCO-15CAP-00000-008JC","geoLocation":{"lat":35.393889,"lng":-119.139645}},{"address":"16824 JOHNSON RD BAKERSFIELD, CA","kw":14.5,"permitId":"KERNCO-15CAP-00000-008IA","geoLocation":{"lat":35.360432,"lng":-119.189239}},{"address":"1054 MOON RANCH ST BAKERSFIELD, CA","kw":18.24,"permitId":"KERNCO-15CAP-00000-008IR","geoLocation":{"lat":35.364649,"lng":-119.184837}},{"address":"2708 LYNWOOD ST BAKERSFIELD, CA","kw":4.77,"permitId":"KERNCO-15CAP-00000-008GF","geoLocation":{"lat":35.382824,"lng":-118.928561}},{"address":"2007 DI GIORGIO RD BAKERSFIELD, CA","kw":8.215,"permitId":"KERNCO-15CAP-00000-008GC","geoLocation":{"lat":35.251797,"lng":-118.981816}},{"address":"9307 BRILLO DR BAKERSFIELD, CA","kw":5.565,"permitId":"KERNCO-15CAP-00000-008GD","geoLocation":{"lat":35.3582449,"lng":-118.900777}},{"address":"7901 BONANZA DR BAKERSFIELD, CA","kw":5.1,"permitId":"KERNCO-15CAP-00000-008IC","geoLocation":{"lat":35.337029,"lng":-118.91652}},{"address":"3220 STERLING RD BAKERSFIELD, CA","kw":4.505,"permitId":"KERNCO-15CAP-00000-008GG","geoLocation":{"lat":35.383009,"lng":-118.941168}},{"address":"19221 SCHWEIKART AV BAKERSFIELD, CA","kw":9.1,"permitId":"KERNCO-15CAP-00000-008ID","geoLocation":{"lat":35.384663,"lng":-119.215837}},{"address":"14608 SHAKER CREST PL BAKERSFIELD, CA","kw":8.9,"permitId":"KERNCO-15CAP-00000-008IB","geoLocation":{"lat":35.374894,"lng":-119.164975}},{"address":"6922 THREE PINES CANYON AV INYOKERN, CA","kw":8.215,"permitId":"KERNCO-15CAP-00000-008GE","geoLocation":{"lat":35.6740879,"lng":-117.8239285}},{"address":"3405 LAKE ST BAKERSFIELD, CA","kw":2.915,"permitId":"KERNCO-15CAP-00000-008GJ","geoLocation":{"lat":35.373874,"lng":-118.942558}},{"address":"4421 EARL AV BAKERSFIELD, CA","kw":9.54,"permitId":"KERNCO-15CAP-00000-008GN"},{"address":"15616 MONTALONE PL BAKERSFIELD, CA","kw":6.625,"permitId":"KERNCO-15CAP-00000-008GP"},{"address":"3720 MEADOW RUN LN BAKERSFIELD, CA","kw":8.48,"permitId":"KERNCO-15CAP-00000-008GL","geoLocation":{"lat":35.440048,"lng":-119.028824}},{"address":"820 PLAZA ST BAKERSFIELD, CA","kw":4.77,"permitId":"KERNCO-15CAP-00000-008GS"},{"address":"335 D ST TAFT, CA","kw":9.01,"permitId":"KERNCO-15CAP-00000-008GH","geoLocation":{"lat":35.1339928,"lng":-119.4688847}},{"address":"317 MARIPOSA AV BAKERSFIELD, CA","kw":5.4,"permitId":"KERNCO-15CAP-00000-008GU"},{"address":"506 AUSTIN ST BAKERSFIELD, CA","kw":5.035,"permitId":"KERNCO-15CAP-00000-008GK","geoLocation":{"lat":35.36254400000001,"lng":-118.943436}},{"address":"409 PLYMOUTH ST BAKERSFIELD, CA","kw":2.12,"permitId":"KERNCO-15CAP-00000-008GM"},{"address":"4289 COUNTRY CLUB DR BAKERSFIELD, CA","kw":2.12,"permitId":"KERNCO-15CAP-00000-008GQ","geoLocation":{"lat":35.386654,"lng":-118.936607}},{"address":"9921 GLENN ST BAKERSFIELD, CA","kw":8.5,"permitId":"KERNCO-15CAP-00000-008EM"},{"address":"11001 ENGER ST BAKERSFIELD, CA","kw":6.1,"permitId":"KERNCO-15CAP-00000-008HK"},{"address":"3702 NORD AV BAKERSFIELD, CA","kw":9.3,"permitId":"KERNCO-15CAP-00000-008EK","geoLocation":{"lat":35.393701,"lng":-119.197576}},{"address":"10652 TITANIUM AV TAFT, CA","kw":10.4,"permitId":"KERNCO-15CAP-00000-008EV","geoLocation":{"lat":35.238562,"lng":-119.319511}},{"address":"28143 SUNRIDGE AV DUSTIN ACRES, CA","kw":5.7,"permitId":"KERNCO-15CAP-00000-008EQ","geoLocation":{"lat":35.223407,"lng":-119.380918}},{"address":"15612 AVANTI DR BAKERSFIELD, CA","kw":9.1,"permitId":"KERNCO-15CAP-00000-008EO","geoLocation":{"lat":35.3732921,"lng":-119.0187125}},{"address":"8431 TUCANA AV BAKERSFIELD, CA","kw":6.5,"permitId":"KERNCO-15CAP-00000-008EX","geoLocation":{"lat":35.3731319,"lng":-118.9100535}},{"address":"16500 BRIMHALL RD BAKERSFIELD, CA","kw":29.4,"permitId":"KERNCO-15CAP-00000-008GX"},{"address":"15152 JUNEBERRY CT BAKERSFIELD, CA","kw":9.24,"permitId":"KERNCO-15CAP-00000-008HN","geoLocation":{"lat":35.4038456,"lng":-119.1699618}},{"address":"9232 60TH STREET WEST  MOJAVE, CA","kw":3.18,"permitId":"KERNCO-15CAP-00000-008HE"},{"address":"28186 SUNRIDGE AV DUSTIN ACRES, CA","kw":12.4,"permitId":"KERNCO-15CAP-00000-008EN","geoLocation":{"lat":35.224111,"lng":-119.377081}},{"address":"3036 JANINE AV TEHACHAPI, CA","kw":2.915,"permitId":"KERNCO-15CAP-00000-008HJ"},{"address":"15409 RACHEL AV BAKERSFIELD, CA","kw":7.8,"permitId":"KERNCO-15CAP-00000-008FS","geoLocation":{"lat":35.3826603,"lng":-119.1735289}},{"address":"8702 OAK HILLS AV BAKERSFIELD, CA","kw":13.7,"permitId":"KERNCO-15CAP-00000-008EZ","geoLocation":{"lat":35.42163,"lng":-119.098584}},{"address":"2121 LANTANA WY BAKERSFIELD, CA","kw":3.9,"permitId":"KERNCO-15CAP-00000-008F9","geoLocation":{"lat":35.377892,"lng":-118.932845}},{"address":"2118 DEERFIELD ST BAKERSFIELD, CA","kw":2.28,"permitId":"KERNCO-15CAP-00000-008FO","geoLocation":{"lat":35.378996,"lng":-119.155828}},{"address":"1216 BROOKHAVEN CT ROSAMOND, CA","kw":7.5,"permitId":"KERNCO-15CAP-00000-008FB","geoLocation":{"lat":34.874682,"lng":-118.152874}},{"address":"8912 LILLY ST BAKERSFIELD, CA","kw":5.4,"permitId":"KERNCO-15CAP-00000-008F1","geoLocation":{"lat":35.2735694,"lng":-118.9109711}},{"address":"6200 ALFRED HARRELL HY BAKERSFIELD, CA","kw":12.7,"permitId":"KERNCO-15CAP-00000-008FR","geoLocation":{"lat":35.437633,"lng":-118.934001}},{"address":"1148 BASTA AV BAKERSFIELD, CA","kw":7.8,"permitId":"KERNCO-15CAP-00000-008CO","geoLocation":{"lat":35.418565,"lng":-118.997831}},{"address":"262 BERRY MEADOW WY BAKERSFIELD, CA","kw":7.8,"permitId":"KERNCO-15CAP-00000-008CV","geoLocation":{"lat":35.439198,"lng":-119.026452}},{"address":"8905 LILLY ST LAMONT, CA","kw":12.19,"permitId":"KERNCO-15CAP-00000-008D7","geoLocation":{"lat":35.273888,"lng":-118.910522}},{"address":"14525 GLOVER CT KERN COUNTY, CA","kw":4.505,"permitId":"KERNCO-15CAP-00000-008D9","geoLocation":{"lat":35.4073401,"lng":-119.1641282}},{"address":"9820 VELMA AV LAMONT, CA","kw":4.76,"permitId":"KERNCO-15CAP-00000-008D3","geoLocation":{"lat":35.2654915,"lng":-118.9134605}},{"address":"231 CURNOW RD BAKERSFIELD, CA","kw":7.95,"permitId":"KERNCO-15CAP-00000-008DA","geoLocation":{"lat":35.2593636,"lng":-119.0046344}},{"address":"14521 POMEGRANATE AV BAKERSFIELD, CA","kw":7.42,"permitId":"KERNCO-15CAP-00000-008DB"},{"address":"3816 LAVERNE AV BAKERSFIELD, CA","kw":5.83,"permitId":"KERNCO-15CAP-00000-008DC"},{"address":"22821 SHADY RD TEHACHAPI, CA","kw":4.77,"permitId":"KERNCO-15CAP-00000-008DF"},{"address":"10601 ENGER ST BAKERSFIELD, CA","kw":6.36,"permitId":"KERNCO-15CAP-00000-008DG"},{"address":"1416 OSWELL ST BAKERSFIELD, CA","kw":3.71,"permitId":"KERNCO-15CAP-00000-008DE"},{"address":"1928 RADIANCE DR BAKERSFIELD, CA","kw":3.18,"permitId":"KERNCO-15CAP-00000-008DI","geoLocation":{"lat":35.342447,"lng":-119.0249}},{"address":"16946 ROSEDALE HY BAKERSFIELD, CA","kw":9.54,"permitId":"KERNCO-15CAP-00000-008DN","geoLocation":{"lat":35.3834939,"lng":-119.189917}},{"address":"6600 CHERRYWOOD AV BAKERSFIELD, CA","kw":6.89,"permitId":"KERNCO-15CAP-00000-008DO","geoLocation":{"lat":35.423586,"lng":-119.076282}},{"address":"813 BLOSSOM ST BAKERSFIELD, CA","kw":7.95,"permitId":"KERNCO-15CAP-00000-008DP","geoLocation":{"lat":35.371006,"lng":-118.930492}},{"address":"1000 PORTAL AV BAKERSFIELD, CA","kw":5.3,"permitId":"KERNCO-15CAP-00000-008DQ"},{"address":"405 DRY MEADOW LN BAKERSFIELD, CA","kw":3.71,"permitId":"KERNCO-15CAP-00000-008DD"},{"address":"4145 MOSS ST BAKERSFIELD, CA","kw":12.455,"permitId":"KERNCO-15CAP-00000-008DL","geoLocation":{"lat":35.39772,"lng":-119.123106}},{"address":"9213 VIOLA ST BAKERSFIELD, CA","kw":5.83,"permitId":"KERNCO-15CAP-00000-008DM"},{"address":"232 LOUELLA DR BAKERSFIELD, CA","kw":9.805,"permitId":"KERNCO-15CAP-00000-008DH","geoLocation":{"lat":35.359388,"lng":-118.96052}},{"address":"713 OLIVE ST BAKERSFIELD, CA","kw":4.68,"permitId":"KERNCO-15CAP-00000-008DS"},{"address":"363 BERRY MEADOW WY BAKERSFIELD, CA","kw":3.42,"permitId":"KERNCO-15CAP-00000-008BG","geoLocation":{"lat":35.438771,"lng":-119.029772}},{"address":"3410 FILLMORE AV BAKERSFIELD, CA","kw":1.42,"permitId":"KERNCO-15CAP-00000-008BH","geoLocation":{"lat":35.37008300000001,"lng":-118.941871}},{"address":"2036 TORREY DR BAKERSFIELD, CA","kw":7.3,"permitId":"KERNCO-15CAP-00000-008BU","geoLocation":{"lat":35.379105,"lng":-119.123415}},{"address":"7960 HOUGHTON RD BAKERSFIELD, CA","kw":3.25,"permitId":"KERNCO-15CAP-00000-008BJ","geoLocation":{"lat":35.238498,"lng":-119.09052}},{"address":"1910 KENTUCKY ST BAKERSFIELD, CA","kw":4.24,"permitId":"KERNCO-15CAP-00000-008BX","geoLocation":{"lat":35.374483,"lng":-118.972686}},{"address":"8906 YVONNE ST BAKERSFIELD, CA","kw":7.2,"permitId":"KERNCO-15CAP-00000-0089X","geoLocation":{"lat":35.273594,"lng":-119.00991}},{"address":"8420 MOUNTAIN VIEW RD BAKERSFIELD, CA","kw":5.1,"permitId":"KERNCO-15CAP-00000-008C0","geoLocation":{"lat":35.282514,"lng":-118.910676}},{"address":"341 LOUELLA DR BAKERSFIELD, CA","kw":4.9,"permitId":"KERNCO-15CAP-00000-008BR","geoLocation":{"lat":35.361197,"lng":-118.959715}},{"address":"15210 DOBBS AV BAKERSFIELD, CA","kw":7.95,"permitId":"KERNCO-15CAP-00000-008AJ","geoLocation":{"lat":35.386409,"lng":-119.171243}},{"address":"17395 CEDAR CANYON DR TEHACHAPI, CA","kw":12.54,"permitId":"KERNCO-15CAP-00000-008AA","geoLocation":{"lat":35.072378,"lng":-118.63844}},{"address":"9000 FOG WY LAMONT, CA","kw":9,"permitId":"KERNCO-15CAP-00000-008AN","geoLocation":{"lat":35.266245,"lng":-118.904665}},{"address":"12601 ROSEDALE HW BAKERSFIELD, CA","kw":14.7,"permitId":"KERNCO-15CAP-00000-008DX"},{"address":"5434 ADOLPHUS AV BAKERSFIELD, CA","kw":8.19,"permitId":"KERNCO-15CAP-00000-008E2","geoLocation":{"lat":35.434745,"lng":-118.943641}},{"address":"820 PRIMAVERA ST RIDGECREST, CA","kw":7.3,"permitId":"KERNCO-15CAP-00000-008B7","geoLocation":{"lat":35.60954359999999,"lng":-117.7145294}},{"address":"3915 NAVAJO AV BAKERSFIELD, CA","kw":4.25,"permitId":"KERNCO-15CAP-00000-008AQ","geoLocation":{"lat":35.3491209,"lng":-119.046211}},{"address":"6109 LUPINE AV BAKERSFIELD, CA","kw":7.75,"permitId":"KERNCO-15CAP-00000-008AT","geoLocation":{"lat":35.417155,"lng":-119.070685}},{"address":"9274 ENOS LN BAKERSFIELD, CA","kw":12.54,"permitId":"KERNCO-15CAP-00000-0089D","geoLocation":{"lat":35.444355,"lng":-119.251137}},{"address":"1015 LOCH LOMOND DR BAKERSFIELD, CA","kw":12.25,"permitId":"KERNCO-15CAP-00000-008AR","geoLocation":{"lat":35.345407,"lng":-119.033772}},{"address":"1623 LISLE ST BAKERSFIELD, CA","kw":7.15,"permitId":"KERNCO-15CAP-00000-0089L","geoLocation":{"lat":35.4186819,"lng":-119.054803}},{"address":"2309 51ST STREET WEST  ROSAMOND, CA","kw":9.36,"permitId":"KERNCO-15CAP-00000-0089B","geoLocation":{"lat":34.853363,"lng":-118.223125}},{"address":"8805 HICKORY HILLS AV BAKERSFIELD, CA","kw":4.77,"permitId":"KERNCO-15CAP-00000-0089I","geoLocation":{"lat":35.4231,"lng":-119.099987}},{"address":"401 LOCH LOMOND DR BAKERSFIELD, CA","kw":4,"permitId":"KERNCO-15CAP-00000-008AO","geoLocation":{"lat":35.3499229,"lng":-119.033701}},{"address":"721 SHELDON DR BAKERSFIELD, CA","kw":7.42,"permitId":"KERNCO-15CAP-00000-0089J","geoLocation":{"lat":35.4138241,"lng":-119.0499893}},{"address":"1125 CLINTON AV BAKERSFIELD, CA","kw":3.1,"permitId":"KERNCO-15CAP-00000-0087L","geoLocation":{"lat":35.3750553,"lng":-118.9238788}},{"address":"9311 BIRCH CREEK CT BAKERSFIELD, CA","kw":9.1,"permitId":"KERNCO-15CAP-00000-0089M","geoLocation":{"lat":35.420151,"lng":-119.106043}},{"address":"2611 POPPY ST BAKERSFIELD, CA","kw":5.2,"permitId":"KERNCO-15CAP-00000-0087X","geoLocation":{"lat":35.382291,"lng":-118.931164}},{"address":"1805 DOLPHIN AV RIDGECREST, CA","kw":5.5,"permitId":"KERNCO-15CAP-00000-0087M","geoLocation":{"lat":35.600189,"lng":-117.708245}},{"address":"2616 LUCKY ST BAKERSFIELD, CA","kw":1.7,"permitId":"KERNCO-15CAP-00000-0087K","geoLocation":{"lat":35.366186,"lng":-118.962256}},{"address":"2105 CARRERE ST BAKERSFIELD, CA","kw":5.83,"permitId":"KERNCO-15CAP-00000-0087Z","geoLocation":{"lat":35.4254999,"lng":-119.0201197}},{"address":"3705 BLACK MOUNTAIN RD INYOKERN, CA","kw":10.64,"permitId":"KERNCO-15CAP-00000-00882"},{"address":"14009 TABLE ROCK AV BAKERSFIELD, CA","kw":11.7,"permitId":"KERNCO-15CAP-00000-0088F","geoLocation":{"lat":35.398389,"lng":-119.158539}},{"address":"7816 DAVIN PARK DR BAKERSFIELD, CA","kw":7.8,"permitId":"KERNCO-15CAP-00000-0088J","geoLocation":{"lat":35.413576,"lng":-119.089609}},{"address":"24480 BANDUCCI RD TEHACHAPI, CA","kw":14.7,"permitId":"KERNCO-15CAP-00000-0088L","geoLocation":{"lat":35.0915048,"lng":-118.5641609}},{"address":"14722 GLOVER CT KERN COUNTY, CA","kw":8,"permitId":"KERNCO-15CAP-00000-0088H"},{"address":"1520 COUNTRY CLUB DR BAKERSFIELD, CA","kw":3.9,"permitId":"KERNCO-15CAP-00000-0088K","geoLocation":{"lat":35.378698,"lng":-118.955475}},{"address":"7260 COBB RD BAKERSFIELD, CA","kw":7.6,"permitId":"KERNCO-15CAP-00000-00859","geoLocation":{"lat":35.248945,"lng":-119.082652}},{"address":"3016 BRISTOL AV BAKERSFIELD, CA","kw":6.4,"permitId":"KERNCO-15CAP-00000-0088M"},{"address":"6424 TEVIS DR BAKERSFIELD, CA","kw":13.5,"permitId":"KERNCO-15CAP-00000-0085K","geoLocation":{"lat":35.348345,"lng":-119.074237}},{"address":"21392 TAMARON DR TEHACHAPI, CA","kw":8.2,"permitId":"KERNCO-15CAP-00000-0088I","geoLocation":{"lat":35.129529,"lng":-118.548205}},{"address":"412 BUCHANAN ST TAFT, CA","kw":2,"permitId":"KERNCO-15CAP-00000-0085L","geoLocation":{"lat":35.157085,"lng":-119.463558}},{"address":"15542 SCREAMING EAGLE AV KERN COUNTY, CA","kw":5.4,"permitId":"KERNCO-15CAP-00000-0084U"},{"address":"10605 CAVE AV BAKERSFIELD, CA","kw":10.335,"permitId":"KERNCO-15CAP-00000-00839"},{"address":"6601 PARK AV LAKE ISABELLA, CA","kw":8.84,"permitId":"KERNCO-15CAP-00000-00852"},{"address":"835 COUGAR RUN DR BAKERSFIELD, CA","kw":4.6,"permitId":"KERNCO-15CAP-00000-0085N"},{"address":"2865 OWENS WY ROSAMOND, CA","kw":6,"permitId":"KERNCO-15CAP-00000-0085S"},{"address":"21401 MARENGO WY TEHACHAPI, CA","kw":13.7,"permitId":"KERNCO-15CAP-00000-0083S","geoLocation":{"lat":35.12937300000001,"lng":-118.617204}},{"address":"8609 EUCALYPTUS DR BAKERSFIELD, CA","kw":5.98,"permitId":"KERNCO-15CAP-00000-0084A","geoLocation":{"lat":35.365106,"lng":-118.908107}},{"address":"10834 OLCESE RD BAKERSFIELD, CA","kw":6.625,"permitId":"KERNCO-15CAP-00000-0083U","geoLocation":{"lat":35.437222,"lng":-118.883686}},{"address":"210 BELLE AV BAKERSFIELD, CA","kw":5.565,"permitId":"KERNCO-15CAP-00000-0083D","geoLocation":{"lat":35.4106862,"lng":-119.0243433}},{"address":"434 D ST TAFT, CA","kw":5.2,"permitId":"KERNCO-15CAP-00000-0081X","geoLocation":{"lat":35.1344769,"lng":-119.470794}},{"address":"7109 CRANBROOK AV BAKERSFIELD, CA","kw":4.4,"permitId":"KERNCO-15CAP-00000-0085M"},{"address":"9012 LORELEI ROCK DR KERN COUNTY, CA","kw":7.95,"permitId":"KERNCO-15CAP-00000-0083A","geoLocation":{"lat":35.376103,"lng":-118.903462}},{"address":"12529 ROSEDALE HY BAKERSFIELD, CA","kw":7.52,"permitId":"KERNCO-15CAP-00000-0084X"},{"address":"9416 MAX DR BAKERSFIELD, CA","kw":8.3,"permitId":"KERNCO-15CAP-00000-0082N","geoLocation":{"lat":35.382715,"lng":-119.106481}},{"address":"1748 CAMINO PRIMAVERA  BAKERSFIELD, CA","kw":5.1,"permitId":"KERNCO-15CAP-00000-00820","geoLocation":{"lat":35.3816168,"lng":-118.9579184}},{"address":"2721 CARRIAGE ST BAKERSFIELD, CA","kw":8.3,"permitId":"KERNCO-15CAP-00000-00837","geoLocation":{"lat":35.384782,"lng":-119.200636}},{"address":"2004 DEAN AV BAKERSFIELD, CA","kw":7.5,"permitId":"KERNCO-15CAP-00000-0081Z","geoLocation":{"lat":35.377661,"lng":-119.116642}},{"address":"9256 VAL DI CHIANA DR BAKERSFIELD, CA","kw":12.6,"permitId":"KERNCO-15CAP-00000-00828","geoLocation":{"lat":35.428142,"lng":-119.105326}},{"address":"6713 RANDALL ST BAKERSFIELD, CA","kw":10.3,"permitId":"KERNCO-15CAP-00000-00834","geoLocation":{"lat":35.42163,"lng":-119.085291}},{"address":"9406 CAMINOS ST BAKERSFIELD, CA","kw":7.5,"permitId":"KERNCO-15CAP-00000-00836","geoLocation":{"lat":35.269157,"lng":-118.974869}},{"address":"2821 CARRIAGE ST BAKERSFIELD, CA","kw":9.6,"permitId":"KERNCO-15CAP-00000-00833","geoLocation":{"lat":35.385779,"lng":-119.200634}},{"address":"27957 DUSTIN ACRES RD DUSTIN ACRES, CA","kw":8.3,"permitId":"KERNCO-15CAP-00000-00835","geoLocation":{"lat":35.217129,"lng":-119.3774119}},{"address":"14501 DOBBS AV BAKERSFIELD, CA","kw":9.4,"permitId":"KERNCO-15CAP-00000-00838"},{"address":"21220 PROSPECT AV TEHACHAPI, CA","kw":7.44,"permitId":"KERNCO-15CAP-00000-0080D"},{"address":"2934 POTOMAC AV BAKERSFIELD, CA","kw":6.1,"permitId":"KERNCO-15CAP-00000-0080H"},{"address":"22733 WOODFORD TEHACHAPI RD BAKERSFIELD, CA","kw":1.59,"permitId":"KERNCO-15CAP-00000-00815"},{"address":"224 TRINITY AV BAKERSFIELD, CA","kw":5.83,"permitId":"KERNCO-15CAP-00000-00816"},{"address":"2321 DEAN AV BAKERSFIELD, CA","kw":3.9,"permitId":"KERNCO-15CAP-00000-007ZT"},{"address":"15124 DOBBS AV BAKERSFIELD, CA","kw":6.2,"permitId":"KERNCO-15CAP-00000-007ZW"},{"address":"1845 KENT DR BAKERSFIELD, CA","kw":2.08,"permitId":"KERNCO-15CAP-00000-007ZO","geoLocation":{"lat":35.3845535,"lng":-118.9568066}},{"address":"10031 HOLLAND ST BAKERSFIELD, CA","kw":4.4,"permitId":"KERNCO-15CAP-00000-007ZU"},{"address":"323 BUENA VISTA ST TAFT, CA","kw":3.3,"permitId":"KERNCO-15CAP-00000-007ZR","geoLocation":{"lat":35.1316525,"lng":-119.4600177}},{"address":"10119 PALM AV BAKERSFIELD, CA","kw":8.8,"permitId":"KERNCO-15CAP-00000-007ZS","geoLocation":{"lat":35.3747029,"lng":-119.115383}},{"address":"3318 MONTEREY ST BAKERSFIELD, CA","kw":4.96,"permitId":"KERNCO-15CAP-00000-00805"},{"address":"14448 CHEVALIER RD BAKERSFIELD, CA","kw":7.685,"permitId":"KERNCO-15CAP-00000-00817"},{"address":"912 ORANGEWOOD ST BAKERSFIELD, CA","kw":3.71,"permitId":"KERNCO-15CAP-00000-00818","geoLocation":{"lat":35.36666,"lng":-118.910921}},{"address":"15810 LAKE ARROWHEAD AV BAKERSFIELD, CA","kw":6.625,"permitId":"KERNCO-15CAP-00000-00819","geoLocation":{"lat":35.37746,"lng":-119.178217}},{"address":"30880 BORREL CT TEHACHAPI, CA","kw":3.975,"permitId":"KERNCO-15CAP-00000-0081B","geoLocation":{"lat":35.0874219,"lng":-118.678718}},{"address":"11544 SNOW RD BAKERSFIELD, CA","kw":13.515,"permitId":"KERNCO-15CAP-00000-0081A","geoLocation":{"lat":35.429145,"lng":-119.130388}},{"address":"300 REAL RD BAKERSFIELD, CA","kw":2.12,"permitId":"KERNCO-15CAP-00000-0081D","geoLocation":{"lat":35.359038,"lng":-119.043176}},{"address":"2425 MANOR ST BAKERSFIELD, CA","kw":3.75,"permitId":"KERNCO-15CAP-00000-007XL","geoLocation":{"lat":35.42872699999999,"lng":-119.012712}},{"address":"18300 BASIL DR TEHACHAPI, CA","kw":5.56,"permitId":"KERNCO-15CAP-00000-0081C","geoLocation":{"lat":35.08515,"lng":-118.519681}},{"address":"812 TANGERINE ST BAKERSFIELD, CA","kw":7.42,"permitId":"KERNCO-15CAP-00000-0081F","geoLocation":{"lat":35.37103,"lng":-118.92787}},{"address":"3524 TONY ST BAKERSFIELD, CA","kw":5.83,"permitId":"KERNCO-15CAP-00000-0081G","geoLocation":{"lat":35.367228,"lng":-118.937016}},{"address":"4125 LEXINGTON AV BAKERSFIELD, CA","kw":4.77,"permitId":"KERNCO-15CAP-00000-0081E","geoLocation":{"lat":35.3702169,"lng":-118.938509}},{"address":"2820 ELMER LN BAKERSFIELD, CA","kw":6.5,"permitId":"KERNCO-15CAP-00000-007XO","geoLocation":{"lat":35.432508,"lng":-119.009215}},{"address":"319 FILLMORE ST TAFT, CA","kw":2.12,"permitId":"KERNCO-15CAP-00000-007XQ","geoLocation":{"lat":35.155914,"lng":-119.461746}},{"address":"3917 COURTNEY ST BAKERSFIELD, CA","kw":10.865,"permitId":"KERNCO-15CAP-00000-007XU","geoLocation":{"lat":35.395469,"lng":-119.120581}},{"address":"2307 JUNE AV BAKERSFIELD, CA","kw":6.095,"permitId":"KERNCO-15CAP-00000-007XS","geoLocation":{"lat":35.340151,"lng":-119.028235}},{"address":"803 GREENWOOD MEADOW LN BAKERSFIELD, CA","kw":4.24,"permitId":"KERNCO-15CAP-00000-007XT","geoLocation":{"lat":35.435942,"lng":-119.036907}},{"address":"9225 PONDEROSA AV BAKERSFIELD, CA","kw":5.3,"permitId":"KERNCO-15CAP-00000-007XR","geoLocation":{"lat":35.363676,"lng":-118.901527}},{"address":"3900 JUNIPER RIDGE LN ROSAMOND, CA","kw":4.33,"permitId":"KERNCO-15CAP-00000-007YI","geoLocation":{"lat":34.877574,"lng":-118.155604}},{"address":"1713 CLASSEN ST BAKERSFIELD, CA","kw":10.6,"permitId":"KERNCO-15CAP-00000-007YK","geoLocation":{"lat":35.374912,"lng":-119.145008}},{"address":"8832 JERRY ST BAKERSFIELD, CA","kw":7.95,"permitId":"KERNCO-15CAP-00000-007XV","geoLocation":{"lat":35.2748127,"lng":-119.0152888}},{"address":"7821 DUNNSMERE AV LAMONT, CA","kw":4.16,"permitId":"KERNCO-15CAP-00000-007YZ","geoLocation":{"lat":35.249863,"lng":-118.9168346}},{"address":"29340 LERDO HW SHAFTER, CA","kw":9.3,"permitId":"KERNCO-15CAP-00000-007Z5","geoLocation":{"lat":35.4998111,"lng":-119.168859}},{"address":"21172 FRESNO ST LOST HILLS, CA","kw":3.5,"permitId":"KERNCO-15CAP-00000-007Z2","geoLocation":{"lat":35.615307,"lng":-119.692182}},{"address":"723 ROBERTS LN BAKERSFIELD, CA","kw":15.6,"permitId":"KERNCO-15CAP-00000-007Z4","geoLocation":{"lat":35.4085905,"lng":-119.0344487}},{"address":"14801 GLOVER CT BAKERSFIELD, CA","kw":9.1,"permitId":"KERNCO-15CAP-00000-007Z7","geoLocation":{"lat":35.4075656,"lng":-119.1664485}},{"address":"418 BROOKHAVEN DR BAKERSFIELD, CA","kw":4.5,"permitId":"KERNCO-15CAP-00000-007Z6","geoLocation":{"lat":35.3507109,"lng":-119.027169}},{"address":"15927 SAMMIE AV BAKERSFIELD, CA","kw":11.7,"permitId":"KERNCO-15CAP-00000-007Z9","geoLocation":{"lat":35.3786739,"lng":-119.179771}},{"address":"1309 WILSON AV BAKERSFIELD, CA","kw":3,"permitId":"KERNCO-15CAP-00000-007ZB","geoLocation":{"lat":35.417008,"lng":-119.050389}},{"address":"2218 ELTON AV BAKERSFIELD, CA","kw":3.25,"permitId":"KERNCO-15CAP-00000-007VY","geoLocation":{"lat":35.38609,"lng":-118.966628}},{"address":"5011 COLLEGE AV BAKERSFIELD, CA","kw":5.98,"permitId":"KERNCO-15CAP-00000-007WV"},{"address":"11110 MEACHAM RD BAKERSFIELD, CA","kw":1.9,"permitId":"KERNCO-15CAP-00000-007W6","geoLocation":{"lat":35.3909949,"lng":-119.126148}},{"address":"10110 PALM AV BAKERSFIELD, CA","kw":7.54,"permitId":"KERNCO-15CAP-00000-007WT","geoLocation":{"lat":35.375783,"lng":-119.114926}},{"address":"13401 MOROCCO AV BAKERSFIELD, CA","kw":13.68,"permitId":"KERNCO-15CAP-00000-007W8"},{"address":"2951 DESERT ST ROSAMOND, CA","kw":8.06,"permitId":"KERNCO-15CAP-00000-007X3"},{"address":"7500 LETTY AV LAMONT, CA","kw":5.3,"permitId":"KERNCO-15CAP-00000-007U4"},{"address":"3011 PICO AV BAKERSFIELD, CA","kw":2,"permitId":"KERNCO-15CAP-00000-007W0","geoLocation":{"lat":35.3901914,"lng":-118.9557515}},{"address":"20 CURRAN ST BAKERSFIELD, CA","kw":3.25,"permitId":"KERNCO-15CAP-00000-007W1"},{"address":"9120 SENTIDO DR BAKERSFIELD, CA","kw":5.72,"permitId":"KERNCO-15CAP-00000-007WW"},{"address":"1301 ROYAL WY BAKERSFIELD, CA","kw":7.25,"permitId":"KERNCO-15CAP-00000-007VZ"},{"address":"22725 WOODFORD TEHACHAPI RD TEHACHAPI, CA","kw":2.12,"permitId":"KERNCO-15CAP-00000-007U9"},{"address":"6801 BRUNDAGE LN BAKERSFIELD, CA","kw":7.95,"permitId":"KERNCO-15CAP-00000-007UD","geoLocation":{"lat":35.353766,"lng":-118.928577}},{"address":"22737 WOODFORD TEHACHAPI RD TEHACHAPI, CA","kw":2.65,"permitId":"KERNCO-15CAP-00000-007U5"},{"address":"10500 CAVE AV BAKERSFIELD, CA","kw":9.275,"permitId":"KERNCO-15CAP-00000-007UB","geoLocation":{"lat":35.39213,"lng":-119.1192}},{"address":"2213 EDGEWOOD ST BAKERSFIELD, CA","kw":2.65,"permitId":"KERNCO-15CAP-00000-007UA","geoLocation":{"lat":35.378383,"lng":-118.927767}},{"address":"22729 WOODFORD TEHACHAPI RD TEHACHAPI, CA","kw":1.59,"permitId":"KERNCO-15CAP-00000-007U8"},{"address":"6631 VIA DEL MAR  BAKERSFIELD, CA","kw":6.095,"permitId":"KERNCO-15CAP-00000-007UE","geoLocation":{"lat":35.3452207,"lng":-118.9303256}},{"address":"2600 SHADOW MOUNTAIN DR LAKE ISABELLA, CA","kw":9.01,"permitId":"KERNCO-15CAP-00000-007UC","geoLocation":{"lat":35.611406,"lng":-118.405569}},{"address":"29799 RIVERSIDE ST SHAFTER, CA","kw":7.95,"permitId":"KERNCO-15CAP-00000-007UH","geoLocation":{"lat":35.48416,"lng":-119.305832}},{"address":"10304 PALM AV BAKERSFIELD, CA","kw":10.865,"permitId":"KERNCO-15CAP-00000-007UI","geoLocation":{"lat":35.3758989,"lng":-119.117104}},{"address":"8503 TUCANA AV BAKERSFIELD, CA","kw":5.565,"permitId":"KERNCO-15CAP-00000-007UK","geoLocation":{"lat":35.373129,"lng":-118.90985}},{"address":"638 VOORHIES LN BAKERSFIELD, CA","kw":3.445,"permitId":"KERNCO-15CAP-00000-007UL","geoLocation":{"lat":35.36810699999999,"lng":-118.91979}},{"address":"5720 KAREN PL BAKERSFIELD, CA","kw":5.3,"permitId":"KERNCO-15CAP-00000-007UM","geoLocation":{"lat":35.30183,"lng":-118.999269}},{"address":"21416 MOUNTAIN DR TEHACHAPI, CA","kw":4.24,"permitId":"KERNCO-15CAP-00000-007UN","geoLocation":{"lat":35.13917199999999,"lng":-118.511252}},{"address":"3408 LAVERNE AV BAKERSFIELD, CA","kw":4.77,"permitId":"KERNCO-15CAP-00000-007UP","geoLocation":{"lat":35.3429468,"lng":-119.041133}},{"address":"500 CURTIS DR BAKERSFIELD, CA","kw":4.505,"permitId":"KERNCO-15CAP-00000-007UQ","geoLocation":{"lat":35.336917,"lng":-119.00763}},{"address":"309 CRAWFORD ST BAKERSFIELD, CA","kw":3.445,"permitId":"KERNCO-15CAP-00000-007US","geoLocation":{"lat":35.396217,"lng":-118.993485}},{"address":"15508 GEORGES LETOUR AV BAKERSFIELD, CA","kw":11.13,"permitId":"KERNCO-15CAP-00000-007UR","geoLocation":{"lat":35.370016,"lng":-119.1744089}},{"address":"2908 CALIENTE ST BAKERSFIELD, CA","kw":5.565,"permitId":"KERNCO-15CAP-00000-007UT","geoLocation":{"lat":35.38014,"lng":-118.946038}},{"address":"6430 OLIVE DR BAKERSFIELD, CA","kw":17.49,"permitId":"KERNCO-15CAP-00000-007UU"},{"address":"3416 FAIRMOUNT ST BAKERSFIELD, CA","kw":4.77,"permitId":"KERNCO-15CAP-00000-007UV","geoLocation":{"lat":35.384706,"lng":-118.949275}},{"address":"405 F ST TAFT, CA","kw":7.8,"permitId":"KERNCO-15CAP-00000-007UW"},{"address":"12421 Winn AV BAKERSFIELD, CA","kw":10.4,"permitId":"KERNCO-15CAP-00000-007V2","geoLocation":{"lat":35.387182,"lng":-119.14068}},{"address":"6932 HEATHERWOOD DR BAKERSFIELD, CA","kw":6.84,"permitId":"KERNCO-15CAP-00000-007V4","geoLocation":{"lat":35.227948,"lng":-119.079694}},{"address":"17700 BUCKPASSER  TEHACHAPI, CA","kw":8.1,"permitId":"KERNCO-15CAP-00000-007VD"},{"address":"14500 MARICOPA HIGHWAY  KERN COUNTY, CA","kw":15.6,"permitId":"KERNCO-15CAP-00000-007TC"},{"address":"5908 ASHWOOD ST BAKERSFIELD, CA","kw":7.75,"permitId":"KERNCO-15CAP-00000-007T2"},{"address":"14611 DOBBS AV BAKERSFIELD, CA","kw":9.62,"permitId":"KERNCO-15CAP-00000-007T9"},{"address":"4004 ELDORADO AV BAKERSFIELD, CA","kw":5.5,"permitId":"KERNCO-15CAP-00000-007VF"},{"address":"3913 FAIRMOUNT ST BAKERSFIELD, CA","kw":7.28,"permitId":"KERNCO-15CAP-00000-007T6"},{"address":"7708 BONANZA DR BAKERSFIELD, CA","kw":11.25,"permitId":"KERNCO-15CAP-00000-007VH"},{"address":"13541 LUTTRELL CT BAKERSFIELD, CA","kw":8.5,"permitId":"KERNCO-15CAP-00000-007TN"},{"address":"14309 WILDHEATHER AV BAKERSFIELD, CA","kw":9.1,"permitId":"KERNCO-15CAP-00000-007TP","geoLocation":{"lat":35.366009,"lng":-119.161355}},{"address":"902 ALANDALE AV BAKERSFIELD, CA","kw":1.995,"permitId":"KERNCO-15CAP-00000-007SR","geoLocation":{"lat":35.4288804,"lng":-119.0119372}},{"address":"22509 VALLEY VISTA DR TEHACHAPI, CA","kw":3.025,"permitId":"KERNCO-15CAP-00000-007SN","geoLocation":{"lat":35.146911,"lng":-118.513875}},{"address":"2724 COLD CREEK AV ROSAMOND, CA","kw":4.56,"permitId":"KERNCO-15CAP-00000-007ST","geoLocation":{"lat":34.848798,"lng":-118.17986}},{"address":"1361 GARTH  RIDGECREST, CA","kw":4.16,"permitId":"KERNCO-15CAP-00000-007SO","geoLocation":{"lat":35.646051,"lng":-117.699187}},{"address":"3607 PICKWICK DR BAKERSFIELD, CA","kw":13.5,"permitId":"KERNCO-15CAP-00000-007QD","geoLocation":{"lat":35.386291,"lng":-118.945477}},{"address":"15702 SAN MARCO PL KERN COUNTY, CA","kw":12.4,"permitId":"KERNCO-15CAP-00000-007TQ","geoLocation":{"lat":35.39766,"lng":-119.176506}},{"address":"24360 JUNIPER AV BORON, CA","kw":5.83,"permitId":"KERNCO-15CAP-00000-007TU","geoLocation":{"lat":35.005958,"lng":-117.697041}},{"address":"1354 HELENA  RIDGECREST, CA","kw":5.6,"permitId":"KERNCO-15CAP-00000-007TY","geoLocation":{"lat":35.599127,"lng":-117.676558}},{"address":"7947 ANGELA AV BAKERSFIELD, CA","kw":5.2,"permitId":"KERNCO-15CAP-00000-007SX","geoLocation":{"lat":35.415304,"lng":-119.0911}},{"address":"5306 HOLLIS ST BAKERSFIELD, CA","kw":9.27,"permitId":"KERNCO-15CAP-00000-007R1","geoLocation":{"lat":35.408132,"lng":-119.076302}},{"address":"1804 LOCUST RAVINE  BAKERSFIELD, CA","kw":4.24,"permitId":"KERNCO-15CAP-00000-007R6","geoLocation":{"lat":35.383432,"lng":-118.959444}},{"address":"28050 STALLION SPRINGS DR TEHACHAPI, CA","kw":4.5,"permitId":"KERNCO-15CAP-00000-007R2","geoLocation":{"lat":35.081952,"lng":-118.629661}},{"address":"3612 MADRID AV BAKERSFIELD, CA","kw":2.85,"permitId":"KERNCO-15CAP-00000-007PD","geoLocation":{"lat":35.341444,"lng":-119.043146}},{"address":"2100 SAN LUIS ST BAKERSFIELD, CA","kw":6.5,"permitId":"KERNCO-15CAP-00000-007PI"},{"address":"3702 SECLUSION RD SQUIRREL MOUNTAIN VALLEY, CA","kw":3.64,"permitId":"KERNCO-15CAP-00000-007PR","geoLocation":{"lat":35.627197,"lng":-118.413066}},{"address":"1262 EVANS RD WOFFORD HEIGHTS, CA","kw":8.06,"permitId":"KERNCO-15CAP-00000-007PY","geoLocation":{"lat":35.7119083,"lng":-118.4757303}},{"address":"800 MARGUERITA WY BAKERSFIELD, CA","kw":4.59,"permitId":"KERNCO-15CAP-00000-007NZ","geoLocation":{"lat":35.370778,"lng":-118.932815}},{"address":"4212 GORDON ST BAKERSFIELD, CA","kw":3,"permitId":"KERNCO-15CAP-00000-007NW","geoLocation":{"lat":35.316163,"lng":-119.005479}},{"address":"10700 SAN GORGONIO ST LAMONT, CA","kw":4.335,"permitId":"KERNCO-15CAP-00000-007NY","geoLocation":{"lat":35.257665,"lng":-118.920065}},{"address":"2502 WEGIS AV BAKERSFIELD, CA","kw":17.16,"permitId":"KERNCO-15CAP-00000-007NX","geoLocation":{"lat":35.382526,"lng":-119.189346}},{"address":"505 WATER ST BAKERSFIELD, CA","kw":3.57,"permitId":"KERNCO-15CAP-00000-007O1"},{"address":"10513 LA CRESENTA DR BAKERSFIELD, CA","kw":9.3,"permitId":"KERNCO-15CAP-00000-007O3"},{"address":"503 F ST TAFT, CA","kw":4.4,"permitId":"KERNCO-15CAP-00000-007O4"},{"address":"21175 BADGER ST LOST HILLS, CA","kw":4.03,"permitId":"KERNCO-15CAP-00000-007O5"},{"address":"10209 GLENN ST BAKERSFIELD, CA","kw":11.1,"permitId":"KERNCO-15CAP-00000-007NE","geoLocation":{"lat":35.376958,"lng":-119.115432}},{"address":"10105 GLENN ST BAKERSFIELD, CA","kw":5.4,"permitId":"KERNCO-15CAP-00000-007ND","geoLocation":{"lat":35.376954,"lng":-119.114557}},{"address":"16347 STEPHENIE ST BAKERSFIELD, CA","kw":6.7,"permitId":"KERNCO-15CAP-00000-007MS"},{"address":"6201 ROSEWOOD AV BAKERSFIELD, CA","kw":9.55,"permitId":"KERNCO-15CAP-00000-007NK","geoLocation":{"lat":35.371622,"lng":-118.916167}},{"address":"3016 PERDOT AV ROSAMOND, CA","kw":5.89,"permitId":"KERNCO-15CAP-00000-007OE"},{"address":"4542 BUERKLE RD BUTTONWILLOW, CA","kw":17.92,"permitId":"KERNCO-15CAP-00000-007N5"},{"address":"21830 VERDE ST TEHACHAPI, CA","kw":4.75,"permitId":"KERNCO-15CAP-00000-007OF"},{"address":"14602 WAYNE LEE CT BAKERSFIELD, CA","kw":5.232,"permitId":"KERNCO-15CAP-00000-007OP"},{"address":"29991 RIVERSIDE ST SHAFTER, CA","kw":8.25,"permitId":"KERNCO-15CAP-00000-007NL","geoLocation":{"lat":35.4851579,"lng":-119.2966981}},{"address":"3005 SHELLEY LN BAKERSFIELD, CA","kw":3,"permitId":"KERNCO-15CAP-00000-007LS","geoLocation":{"lat":35.38905099999999,"lng":-118.955896}},{"address":"2409 MANOR ST BAKERSFIELD, CA","kw":5,"permitId":"KERNCO-15CAP-00000-007LP","geoLocation":{"lat":35.428192,"lng":-119.0126715}},{"address":"3644 GRAAF AV RIDGECREST, CA","kw":8.4,"permitId":"KERNCO-15CAP-00000-007LE","geoLocation":{"lat":35.6482833,"lng":-117.7832166}},{"address":"9900 PALM AV BAKERSFIELD, CA","kw":10.4,"permitId":"KERNCO-15CAP-00000-007LY","geoLocation":{"lat":35.375728,"lng":-119.112425}},{"address":"7625 WELDON AV BAKERSFIELD, CA","kw":5.9,"permitId":"KERNCO-15CAP-00000-007LF","geoLocation":{"lat":35.405334,"lng":-119.087563}},{"address":"2548 COLD CREEK AV ROSAMOND, CA","kw":9.01,"permitId":"KERNCO-15CAP-00000-007M8","geoLocation":{"lat":34.8488894,"lng":-118.1774103}},{"address":"23680 DART DR TEHACHAPI, CA","kw":2.52,"permitId":"KERNCO-15CAP-00000-007M0","geoLocation":{"lat":35.16156400000001,"lng":-118.634168}},{"address":"2115 BRADFORD ST BAKERSFIELD, CA","kw":4.5,"permitId":"KERNCO-15CAP-00000-007LR","geoLocation":{"lat":35.349176,"lng":-119.026362}},{"address":"12428 CLIFF AV BAKERSFIELD, CA","kw":10,"permitId":"KERNCO-15CAP-00000-007M9","geoLocation":{"lat":35.400852,"lng":-118.866197}},